X,Y,FUEL_TYPE_CODE,STATION_NAME,STREET_ADDRESS,INTERSECTION_DIRECTIONS,CITY,STATE,ZIPCODE,ZIPCODE_PLUS4,STATION_PHONE,STATUS_CODE,EXCPECTED_DATE,GROUPS_WITH_ACCESS_CODE,ACCESS_DAY_TIMES,CARDS_ACCEPTED,EV_LEVEL1_EVSE_NUM,EV_LEVEL2_EVSE_NUM,EV_DC_FAST_COUNT,EV_OTHER_INFO,EV_NETWORK,EV_NETWORK_WEB,GEOCODE_STATUS,LATITUDE,LONGITUDE,DATE_LAST_CONFIRMED,ID,UPDATED_AT,OWNER_TYPE_CODE,FEDERAL_AGENCY_ID,FEDERAL_AGENCY_NAME,OPEN_DATE,EV_CONNECTOR_TYPES,COUNTRY,ACCESS_CODE,ACCESS_DETAIL_CODE,FEDERAL_AGENCY_CODE,FACILITY_TYPE,EV_PRICING,EV_ONSITE_RENEWABLE_SOURCE,RESTRICTED_ACCESS,MAXIMUM_VEHICLE_CLASS,EV_WORKPLACE_CHARGING,FID
-8577569.04086561,4707834.49828987,ELEC,Avenue Suites Georgetown - Tesla Destination,2500 Pennsylvania Ave NW,,Washington,DC,20037,,202-333-8060  877-798-3752,E,,Public,,,,4,,,Tesla Destination,https://www.tesla.com/destination-charging,200-9,38.9033344,-77.0536137,2022/10/06 00:00:00+00,113664,2023/01/18 15:15:20,P,,,2018/04/30 00:00:00+00,TESLA,US,public,,,HOTEL,Free,,,,False,1
-8540121.42019758,4744028.58103941,ELEC,ARUNDEL MILLS ELEMENT HOTELS,7522 Teague Rd,,Hanover,MD,21076,,888-758-4389,T,2022/09/09 00:00:00+00,TEMPORARILY UNAVAILABLE (Public),"24 hours daily; Drivers must bring their own J1772 cordset for Level 1 charging",,1,,,,ChargePoint Network,http://www.chargepoint.com/,GPS,39.155907,-76.717216,2023/10/06 00:00:00+00,36363,2023/10/06 00:04:21,,,,2010/07/15 00:00:00+00,NEMA515,US,public,,,,,,,,False,2
-8579710.97258381,4710699.48822587,ELEC,Kimpton Glover Park Hotel - Tesla Destination,2505 Wisconsin Ave NW,,Washington,DC,20007,,202-337-9700  877-798-3752,E,,Public,,,,2,,,Tesla Destination,https://www.tesla.com/destination-charging,200-9,38.92336,-77.072855,2022/10/06 00:00:00+00,113665,2023/01/18 15:15:20,P,,,2016/07/19 00:00:00+00,J1772 TESLA,US,public,,,HOTEL,Free,,,,False,3
-8577808.02154844,4707265.93420169,ELEC,The Watergate Hotel - Tesla Destination,2650 Virginia Ave NW,,Washington,DC,20037,,202-827-1600  877-798-3752,E,,Public,,,,4,,,Tesla Destination,https://www.tesla.com/destination-charging,200-9,38.8993596,-77.0557605,2022/10/06 00:00:00+00,113666,2023/01/18 15:15:20,P,,,2018/01/22 00:00:00+00,TESLA,US,public,,,HOTEL,Free,,,,False,5
-8577989.3053392,4707992.22224558,ELEC,Four Seasons Washington D.C. - Tesla Destination,2800 Pennsylvania Ave NW,,Washington,DC,20007,,202-342-0444  877-798-3752,E,,Public,,,,2,,,Tesla Destination,https://www.tesla.com/destination-charging,200-9,38.904437,-77.057389,2022/10/06 00:00:00+00,113667,2023/01/18 15:15:20,P,,,2018/02/28 00:00:00+00,TESLA,US,public,,,HOTEL,Free,,,,False,6
-8572856.80889669,4706654.23552243,ELEC,Hyatt Regency Washington on Capitol Hill - Tesla Destination,400 New Jersey Ave NW,,Washington,DC,20001,,202-737-1234  877-798-3752,E,,Public,,,,4,,,Tesla Destination,https://www.tesla.com/destination-charging,200-9,38.895083,-77.011283,2022/10/06 00:00:00+00,113668,2023/01/18 15:15:20,P,,,2016/04/19 00:00:00+00,J1772 TESLA,US,public,,,HOTEL,Free,,,,False,8
-8572824.73775139,4706709.60242006,ELEC,The Liaison Capitol Hill - Tesla Destination,415 New Jersey Ave NW,,Washington,DC,20001,,202-638-1616  877-798-3752,E,,Public,,,,4,,,Tesla Destination,https://www.tesla.com/destination-charging,200-9,38.8954701,-77.0109949,2022/10/06 00:00:00+00,113669,2023/01/18 15:15:20,P,,,2018/04/13 00:00:00+00,TESLA,US,public,,,HOTEL,Free,,,,False,9
-8575123.90825033,4707457.82173841,ELEC,Hilton Garden Inn Washington DC Downtown - Tesla Destination,815 14th St NW,,Washington,DC,20005,,202-783-7800  877-798-3752,E,,Public,,,,2,,,Tesla Destination,https://www.tesla.com/destination-charging,200-8,38.9007011,-77.0316487,2022/10/06 00:00:00+00,113671,2023/01/18 15:15:20,P,,,2015/12/10 00:00:00+00,TESLA,US,public,,,HOTEL,Free,,,,False,10
-8574523.03903488,4707634.60750868,ELEC,Embassy Suites by Hilton Convention Center - Tesla Destination,900 10th St NW,,Washington,DC,20001,,202-739-2001  877-798-3752,E,,Public,,,,3,,,Tesla Destination,https://www.tesla.com/destination-charging,200-9,38.901937,-77.026251,2022/10/06 00:00:00+00,113672,2023/01/18 15:15:20,P,,,2017/03/23 00:00:00+00,J1772 TESLA,US,public,,,HOTEL,Free,,,,False,12
-8585203.14230108,4694445.7009201,ELEC,Passport Nissan - Alexandria,150 S Pickett St,,Alexandria,VA,22304,,703-823-9000,E,,Public - Call ahead,Dealership business hours,,,3,1,,Non-Networked,,200-9,38.809675,-77.122192,2022/03/07 00:00:00+00,39763,2023/02/14 15:54:11,P,,,2011/03/15 00:00:00+00,CHADEMO J1772 J1772COMBO,US,public,CALL,,CAR_DEALER,Free,,False,LD,False,13
-8573809.03582093,4707638.46968058,ELEC,Hampton Inn Washington-Downtown-Convention Center - Tesla Destination,901 6th St NW,,Washington,DC,20001,,202-842-2500  877-798-3752,E,,Public,,,,1,,,Tesla Destination,https://www.tesla.com/destination-charging,200-9,38.901964,-77.019837,2022/10/06 00:00:00+00,113673,2023/01/18 15:15:20,P,,,2015/12/07 00:00:00+00,TESLA,US,public,,,HOTEL,Free,,,,False,14
-8622826.45852142,4707321.91950129,ELEC,Priority Nissan - Chantilly,14840 Stonecroft Center Ct,,Chantilly,VA,20151,,703-889-3700,E,,Public - Call ahead,Dealership business hours,,,2,1,,Non-Networked,,200-9,38.899751,-77.460168,2022/03/07 00:00:00+00,39764,2023/02/14 15:54:11,P,,,2011/03/15 00:00:00+00,CHADEMO J1772,US,public,CALL,,CAR_DEALER,Free,,False,LD,False,15
-8607757.69565019,4700719.81256544,ELEC,Brown's Fairfax Nissan,11010 Fairfax Blvd,,Fairfax,VA,22030,,703-591-8009,E,,Public - Call ahead,Dealership business hours,,,1,1,,Non-Networked,,200-9,38.85358,-77.324803,2022/03/07 00:00:00+00,39766,2023/02/14 15:54:11,P,,,2011/03/15 00:00:00+00,CHADEMO J1772 J1772COMBO,US,public,CALL,,CAR_DEALER,Free,,False,LD,False,17
-8622726.93889665,4687473.62192792,ELEC,Sheehy Nissan - Manassas,9010 Liberia Ave,,Manassas,VA,20110,,703-361-5161,E,,Public - Call ahead,Dealership business hours,,,2,1,,Non-Networked,,200-9,38.760854,-77.459274,2022/03/07 00:00:00+00,39769,2023/02/14 15:54:11,P,,,2011/03/15 00:00:00+00,CHADEMO J1772 J1772COMBO,US,public,CALL,,CAR_DEALER,Free,,False,LD,False,19
-8620403.14452635,4723169.8453375,ELEC,Brown's Dulles Nissan,45155 Towlern Pl,,Sterling,VA,20166,,703-948-1100,E,,Public - Call ahead,Dealership business hours,,,1,1,,Non-Networked,,200-9,39.010459,-77.438399,2022/03/07 00:00:00+00,39773,2023/02/14 15:54:11,P,,,2011/03/15 00:00:00+00,CHADEMO J1772 J1772COMBO,US,public,CALL,,CAR_DEALER,Free,,False,LD,False,23
-8598410.53196675,4711225.05876085,ELEC,Priority Nissan,8525 Leesburg Pike,,Vienna,VA,22182,,703-442-8700,E,,Public - Call ahead,Dealership business hours,,,2,1,,Non-Networked,,200-9,38.927033,-77.240836,2022/03/07 00:00:00+00,39774,2023/02/14 15:54:11,P,,,2011/03/15 00:00:00+00,CHADEMO J1772,US,public,CALL,,CAR_DEALER,Free,,False,LD,False,24
-8528246.19087823,4763553.8703982,ELEC,Municipal Garage,200 N Holliday St,,Baltimore,MD,21202,,443-573-2800,E,,Public,"24 hours daily; Drivers must bring their own J1772 cordset for Level 1 charging",,1,2,,,Non-Networked,,200-9,39.291785,-76.610539,2022/11/10 00:00:00+00,40012,2023/09/13 17:38:43,LG,,,2011/08/15 00:00:00+00,J1772 NEMA520,US,public,,,FLEET_GARAGE,Free,,False,LD,False,26
-8541646.71986043,4758544.14193398,ELEC,Community College of Baltimore County (CCBC),800 S Rolling Rd,Lot 8,Catonsville,MD,21228,,443-840-2222,E,,Public,24 hours daily,,,2,,,Non-Networked,,200-9,39.256947,-76.730918,2021/09/10 00:00:00+00,40020,2023/08/23 15:19:56,P,,,2019/09/09 00:00:00+00,J1772,US,public,,,COLLEGE_CAMPUS,Free,,False,LD,False,28
-8599405.39425597,4747116.56101961,ELEC,Criswell Nissan,19574 Amaranth Dr,,Germantown,MD,20874,,301-670-3900,E,,Public - Call ahead,Dealership business hours,,,1,,,Non-Networked,,200-9,39.177414,-77.249773,2020/06/09 00:00:00+00,40026,2023/02/15 22:45:41,P,,,2011/03/15 00:00:00+00,J1772,US,public,CALL,,CAR_DEALER,Free,,False,,False,30
-8563055.12773234,4696893.86602417,ELEC,Passport Nissan - Marlow Heights,5000 Auth Way,,Suitland,MD,20746,,,E,,Public - Call ahead,"Dealership business hours; contact 301-423-8400 for more information",,,1,1,,Non-Networked,,200-9,38.82681,-76.923233,2022/03/07 00:00:00+00,40029,2023/02/14 15:54:11,P,,,2011/03/15 00:00:00+00,CHADEMO J1772 J1772COMBO,US,public,CALL,,CAR_DEALER,Free,,False,LD,False,31
-8589525.01021164,4737979.41063936,ELEC,Darcars Nissan,15911 Indianola Dr,,Rockville,MD,20855,,301-309-2200,E,,Public - Call ahead,Dealership business hours,,,1,1,,Non-Networked,,200-9,39.113757,-77.161016,2022/03/07 00:00:00+00,40030,2023/02/14 15:54:11,P,,,2011/03/15 00:00:00+00,CHADEMO J1772,US,public,CALL,,CAR_DEALER,Free,,False,LD,False,32
-8565804.71915493,4732771.27010222,ELEC,Herb Gordon Nissan,3131 Automobile Blvd,,Silver Spring,MD,20904,,301-890-8200,E,,Public - Call ahead,Dealership business hours,,,1,1,,Non-Networked,,200-9,39.077447,-76.947933,2020/06/09 00:00:00+00,40033,2023/02/15 22:45:41,P,,,2011/03/15 00:00:00+00,CHADEMO J1772,US,public,CALL,,CAR_DEALER,Free,,False,,False,33
-8617156.95685532,4714754.6558533,ELEC,Stone's Cove Kitbar,2403 Centreville Rd,,Herndon,VA,20171,,703-434-3615,E,,Public,24 hours daily,,,1,,,Non-Networked,,200-9,38.951695,-77.409238,2021/10/12 00:00:00+00,40565,2022/02/10 19:42:29,P,,,2011/07/15 00:00:00+00,J1772,US,public,,,RESTAURANT,Free,,False,LD,False,37
-8574315.31686506,4707270.56863991,ELEC,Victor Building Parking Garage,750 9th St NW,Located on the first level,Washington,DC,20001,,,E,,Private,"24 hours daily; for tenant use only. Drivers must bring their own J1772 cordset for Level 1 charging",,1,1,,,Non-Networked,,200-9,38.899392,-77.024385,2023/01/10 00:00:00+00,40593,2023/08/11 19:46:24,P,,,2011/05/31 00:00:00+00,J1772 NEMA515,US,private,,,PAY_GARAGE,,,,LD,True,38
-8518752.19678643,4721911.64804289,ELEC,Annapolis Friends Meeting,351 Dubois Ave,"Turn at Catholic Church on Bestgate, go to end. For more information, see http://aprs.org/AFM-environment.html",Annapolis,MD,21401,,410-293-6417,E,,Public,"8am-10pm daily; for church members or those in need of a charge; Drivers must bring their own J1772 cordset for Level 1 charging",,4,2,,,Non-Networked,,200-9,39.001676,-76.525253,2021/09/10 00:00:00+00,40689,2022/04/28 20:01:31,P,,,2011/08/10 00:00:00+00,J1772 NEMA520,US,public,,,PLACE_OF_WORSHIP,Free,SOLAR,True,LD,False,39
-8581274.23219302,4667888.47543492,ELEC,CHARLES COUNTY INDIAN HEAD1,3225 Ruth B Swann Dr,,Indian Head,MD,20640,,888-758-4389,E,,Public,24 hours daily,,,2,,,ChargePoint Network,http://www.chargepoint.com/,GPS,38.623533,-77.086898,2023/10/06 00:00:00+00,41006,2023/10/06 00:16:56,,,,2011/08/15 00:00:00+00,J1772,US,public,,,,,,,,False,41
-8567191.31473225,4631699.42593297,ELEC,CHARLES COUNTY CRAIN CENTER1,12480 Crain Hwy,,Newburg,MD,20664,,888-758-4389,E,,Public,24 hours daily,,,2,,,ChargePoint Network,http://www.chargepoint.com/,GPS,38.369101,-76.960389,2023/10/06 00:00:00+00,41007,2023/10/06 00:16:56,,,,2012/01/31 00:00:00+00,J1772,US,public,,,,,,,,False,42
-8520324.02799643,4706448.84713561,ELEC,Smithsonian Environmental Research Center (SERC),647 Contees Wharf Rd,,Edgewater,MD,21037,,,E,,Private - Government only,,,,2,,,Non-Networked,,200-8,38.893647,-76.539373,2021/02/22 00:00:00+00,41230,2021/03/11 23:22:17,FG,23,Smithsonian Institution,2011/05/01 00:00:00+00,J1772,US,private,GOVERNMENT,SI,RESEARCH_FACILITY,,,,,False,44
-8581061.83460459,4705891.63047833,ELEC,Arlington County CSW,1400 N Uhle St,Parking level,Arlington,VA,22201,,,E,,Private - Government only,Fleet use only,,,1,,,Non-Networked,,GPS,38.889751,-77.08499,2021/12/09 00:00:00+00,41772,2023/02/15 22:45:41,LG,,,2011/10/15 00:00:00+00,J1772,US,private,GOVERNMENT,,MUNI_GOV,,,,LD,False,46
-8629095.86092341,4693611.5876527,ELEC,IBEWLOCAL26JATC MANASSAS 1,7016 Infantry Ridge Rd,,Manassas,VA,20109,,888-758-4389,E,,Public,24 hours daily,,,2,,,ChargePoint Network,http://www.chargepoint.com/,GPS,38.803836,-77.516487,2023/10/06 00:00:00+00,41773,2023/10/06 00:15:27,,,,2011/10/15 00:00:00+00,J1772,US,public,,,,,,,,False,47
-8529510.22369618,4763302.30358656,ELEC,UM PTS GRAND,5 N Paca St,,Baltimore,MD,21201,,888-758-4389,E,,Public,24 hours daily,,,2,,,ChargePoint Network,http://www.chargepoint.com/,GPS,39.290036,-76.621894,2023/10/06 00:00:00+00,43190,2023/10/06 00:13:33,,,,2012/01/15 00:00:00+00,J1772,US,public,,,,,,,,False,48
-8529788.0771452,4763407.01445204,ELEC,UM PTS PEARL #3,622 W Fayette St,,Baltimore,MD,21201,,888-758-4389,E,,Public,24 hours daily,,,2,,,ChargePoint Network,http://www.chargepoint.com/,GPS,39.290764,-76.62439,2023/10/06 00:00:00+00,43191,2023/10/06 00:05:52,,,,2012/01/15 00:00:00+00,J1772,US,public,,,,,,,,False,49
-8529848.74626768,4762795.16169399,ELEC,UM PTS PRATT,646 West Pratt Street,,Baltimore,MD,21201,,888-758-4389,E,,Public,24 hours daily,,,2,,,ChargePoint Network,http://www.chargepoint.com/,GPS,39.28651,-76.624935,2023/10/06 00:00:00+00,43195,2023/10/06 00:13:33,,,,2012/01/15 00:00:00+00,J1772,US,public,,,,,,,,False,50
-8529597.60949646,4763020.97044387,ELEC,UM PTS PLAZA #1,500 West Redwood Street,,Baltimore,MD,21201,,888-758-4389,E,,Public,24 hours daily,,,2,,,ChargePoint Network,http://www.chargepoint.com/,GPS,39.28808,-76.622679,2023/10/06 00:00:00+00,43196,2023/10/06 00:16:08,,,,2012/01/15 00:00:00+00,J1772,US,public,,,,,,,,False,51
-8581149.99964129,4705976.15496062,ELEC,JBG SMITH STATION 2,2200 Clarendon Blvd,,Arlington,VA,22201,,888-758-4389,T,2023/03/25 00:00:00+00,TEMPORARILY UNAVAILABLE (Public),24 hours daily,,,2,,,ChargePoint Network,http://www.chargepoint.com/,GPS,38.890342,-77.085782,2023/10/06 00:00:00+00,43290,2023/10/06 00:14:37,,,,2015/10/02 00:00:00+00,J1772,US,public,,,,,,,,False,52
-8577100.86448318,4700814.15741096,ELEC,JBG SMITH 2231 CRYSTAL DR,2231 Crystal Dr,,Arlington,VA,22202,,888-758-4389,T,2022/09/09 00:00:00+00,TEMPORARILY UNAVAILABLE (Public),24 hours daily,,,1,,,ChargePoint Network,http://www.chargepoint.com/,GPS,38.85424,-77.049408,2023/10/06 00:00:00+00,43292,2023/10/06 00:04:23,,,,2015/10/02 00:00:00+00,J1772,US,public,,,,,,,,False,53
-8615790.62142533,4674852.4476717,ELEC,EVSP WALGREENS STORE 13012,6400 Hoadly Rd,,Manassas,VA,20112,,888-758-4389,E,,Public,24 hours daily,,,1,,,ChargePoint Network,http://www.chargepoint.com/,GPS,38.672391,-77.396964,2023/10/06 00:00:00+00,43390,2023/10/06 00:07:21,,,,2012/01/20 00:00:00+00,J1772,US,public,,,,,,,,False,54
-8536179.04043114,4768596.45661104,ELEC,EVSP WALGREENS STORE 5623,3801 Liberty Heights Ave,,Baltimore,MD,21215,,888-758-4389,E,,Public,24 hours daily,,,1,,,ChargePoint Network,http://www.chargepoint.com/,GPS,39.326834,-76.681801,2023/10/06 00:00:00+00,43440,2023/10/06 00:07:25,,,,2012/01/31 00:00:00+00,J1772,US,public,,,,,,,,False,55
-8515465.15486229,4769650.20989024,ELEC,EVSP WALGREENS STORE 6396,8606 Philadelphia Rd,,Rosedale,MD,21237,,888-758-4389,E,,Public,24 hours daily,,,1,,,ChargePoint Network,http://www.chargepoint.com/,GPS,39.334156,-76.495725,2023/10/06 00:00:00+00,43444,2023/10/06 00:07:25,,,,2012/01/31 00:00:00+00,J1772,US,public,,,,,,,,False,56
-8574675.54673727,4706885.9460694,ELEC,One Parking,555 12th St NW,Level P3,Washington,DC,20004,,202-393-0649,E,,Public,"Restricted to garage hours; pay lot; leave key",,,13,,,Non-Networked,,200-9,38.896703,-77.027621,2023/08/10 00:00:00+00,43836,2023/08/10 16:58:49,P,,,2012/03/01 00:00:00+00,J1772,US,public,,,PAY_GARAGE,Free,,False,LD,False,57
-8578742.93829187,4701872.59504812,ELEC,WEST HALF 2 & 3 1400 JOYCE,1400 S Joyce St,,Arlington,VA,22202,,888-758-4389,E,,Public,24 hours daily,,,2,,,ChargePoint Network,http://www.chargepoint.com/,GPS,38.861644,-77.064159,2023/10/06 00:00:00+00,45166,2023/10/06 00:24:43,,,,2015/10/02 00:00:00+00,J1772,US,public,,,,,,,,False,58
-8626522.26561576,4617903.01158318,ELEC,Shirlie Slack Mitsubishi,3475 Jefferson Davis Hwy,,Fredericksburg,VA,22408,,540-898-0310,E,,Public - Call ahead,Dealership business hours,,,1,,,Non-Networked,,200-9,38.271867,-77.493368,2022/12/13 00:00:00+00,45798,2023/02/14 15:54:11,P,,,2012/03/15 00:00:00+00,J1772,US,public,CALL,,CAR_DEALER,Free,,False,LD,False,59
-8626909.21216576,4615532.77710487,ELEC,Pohanka Nissan of Fredericksburg,5200 Jefferson Davis Hwy,,Fredericksburg,VA,22408,,540-898-5200,E,,Public - Call ahead,Dealership business hours,,,1,1,,Non-Networked,,GPS,38.255149,-77.496844,2022/03/07 00:00:00+00,47557,2023/02/14 15:54:11,P,,,2012/01/31 00:00:00+00,CHADEMO J1772 J1772COMBO,US,public,CALL,,CAR_DEALER,Free,,False,LD,False,70
-8626909.21216576,4615532.77710487,ELEC,Pohanka Nissan of Fredericksburg,5200 Jefferson Davis Hwy,,Fredericksburg,VA,22408,,540-898-5200,E,,Private,,,,1,,,Non-Networked,,GPS,38.255149,-77.496844,2022/03/07 00:00:00+00,47558,2023/02/14 15:54:11,P,,,2012/01/31 00:00:00+00,J1772,US,private,,,CAR_DEALER,Free,,,LD,False,71
-8616146.62115688,4645863.5776774,ELEC,Pohanka Nissan - Stafford,1 Coachman Cir,,Stafford,VA,22554,,540-628-2500,E,,Public - Call ahead,Dealership business hours,,,2,2,,Non-Networked,,200-9,38.468791,-77.400162,2022/03/07 00:00:00+00,47573,2023/02/14 15:54:11,P,,,2012/01/31 00:00:00+00,CHADEMO J1772 J1772COMBO,US,public,CALL,,CAR_DEALER,Free,,False,LD,False,84
-8616146.62115688,4645863.5776774,ELEC,Pohanka Nissan - Stafford,1 Coachman Cir,,Stafford,VA,22554,,540-628-2500,E,,Private,,,,1,,,Non-Networked,,200-9,38.468791,-77.400162,2022/03/07 00:00:00+00,47574,2023/02/14 15:54:11,P,,,2012/01/31 00:00:00+00,J1772,US,private,,,CAR_DEALER,Free,,,LD,False,85
-8602132.61046092,4668747.27684972,ELEC,Cowles Nissan,14777 Jefferson Davis Hwy,,Woodbridge,VA,22191,,,E,,Public - Call ahead,"Dealership business hours; contact 703-497-3000 for more information",,,3,1,,Non-Networked,,GPS,38.62956,-77.274272,2020/06/09 00:00:00+00,47579,2023/02/15 22:45:41,P,,,2012/01/31 00:00:00+00,CHADEMO J1772,US,public,CALL,,CAR_DEALER,Free,,False,,False,90
-8542053.14732132,4766596.47094001,ELEC,Antwerpen Nissan,1701 Woodlawn Dr,,Baltimore,MD,21207,,410-298-4400,E,,Public - Call ahead,Dealership business hours,,,1,,,Non-Networked,,200-9,39.312935,-76.734569,2020/06/09 00:00:00+00,47684,2023/02/15 22:45:41,P,,,2012/01/31 00:00:00+00,J1772,US,public,CALL,,CAR_DEALER,Free,,False,,False,91
-8542053.14732132,4766596.47094001,ELEC,Antwerpen Nissan,1701 Woodlawn Dr,,Baltimore,MD,21207,,410-298-4400,E,,Private,,,,1,,,Non-Networked,,200-9,39.312935,-76.734569,2020/06/09 00:00:00+00,47685,2023/02/15 22:45:41,P,,,2012/01/31 00:00:00+00,J1772,US,private,,,CAR_DEALER,Free,,,,False,92
-8516945.03617289,4764201.01138334,ELEC,Bob Bell Nissan,7900 Eastern Ave,,Baltimore,MD,21224,,410-288-2500,E,,Public - Call ahead,Dealership business hours,,,1,,,Non-Networked,,200-9,39.296284,-76.509019,2020/06/09 00:00:00+00,47686,2023/02/15 22:45:41,P,,,2012/01/31 00:00:00+00,J1772,US,public,CALL,,CAR_DEALER,Free,,False,,False,93
-8516945.03617289,4764201.01138334,ELEC,Bob Bell Nissan,7900 Eastern Ave,,Baltimore,MD,21224,,410-288-2500,E,,Private,,,,1,,,Non-Networked,,200-9,39.296284,-76.509019,2020/06/09 00:00:00+00,47687,2023/02/15 22:45:41,P,,,2012/01/31 00:00:00+00,J1772,US,private,,,CAR_DEALER,Free,,,,False,94
-8540256.33942042,4710095.39474861,ELEC,Nissan of Bowie,2200 Crain Hwy,,Bowie,MD,20716,,301-867-6150,E,,Public - Call ahead,Dealership business hours,,,1,1,,Non-Networked,,200-9,38.919138,-76.718428,2020/06/09 00:00:00+00,47688,2023/02/15 22:45:41,P,,,2012/01/31 00:00:00+00,CHADEMO J1772,US,public,CALL,,CAR_DEALER,Free,,False,,False,95
-8540256.33942042,4710095.39474861,ELEC,Nissan of Bowie,2200 Crain Hwy,,Bowie,MD,20716,,301-867-6150,E,,Private,,,,1,,,Non-Networked,,200-9,38.919138,-76.718428,2020/06/09 00:00:00+00,47689,2023/02/15 22:45:41,P,,,2012/01/31 00:00:00+00,J1772,US,private,,,CAR_DEALER,Free,,,,False,96
-8565417.77260493,4752161.99212808,ELEC,Antwerpen Nissan,12451 Auto Dr,,Clarksville,MD,21029,,410-531-5703,E,,Public - Call ahead,Dealership business hours,,,1,1,,Non-Networked,,200-9,39.21254,-76.944457,2022/03/07 00:00:00+00,47690,2023/02/14 15:54:11,P,,,2012/01/31 00:00:00+00,CHADEMO J1772,US,public,CALL,,CAR_DEALER,Free,,False,LD,False,97
-8565417.77260493,4752161.99212808,ELEC,Antwerpen Nissan,12451 Auto Dr,,Clarksville,MD,21029,,410-531-5703,E,,Private,,,,1,,,Non-Networked,,200-9,39.21254,-76.944457,2022/03/07 00:00:00+00,47691,2023/02/14 15:54:11,P,,,2012/01/31 00:00:00+00,J1772,US,private,,,CAR_DEALER,Free,,,LD,False,98
-8563783.04588263,4722825.16138616,ELEC,Darcars Nissan - College Park,9330 Baltimore Ave,,College Park,MD,20740,,301-441-8000,E,,Public - Call ahead,Dealership business hours,,,1,,,Non-Networked,,200-9,39.008053,-76.929772,2020/06/09 00:00:00+00,47692,2023/02/15 22:45:41,P,,,2012/01/31 00:00:00+00,J1772,US,public,CALL,,CAR_DEALER,Free,,False,,False,99
-8563783.04588263,4722825.16138616,ELEC,Darcars Nissan - College Park,9330 Baltimore Ave,,College Park,MD,20740,,301-441-8000,E,,Private,,,,1,,,Non-Networked,,200-9,39.008053,-76.929772,2020/06/09 00:00:00+00,47693,2023/02/15 22:45:41,P,,,2012/01/31 00:00:00+00,J1772,US,private,,,CAR_DEALER,Free,,,,False,100
-8550292.45943238,4762253.81661783,ELEC,Nissan Ellicott City,8569 Baltimore National Pike,,Ellicott City,MD,21043,,,E,,Public - Call ahead,"Dealership business hours; contact 410-465-5550 for more information",,,1,1,,Non-Networked,,GPS,39.282746,-76.808584,2022/03/07 00:00:00+00,47694,2023/02/14 15:54:11,P,,,2012/01/31 00:00:00+00,CHADEMO J1772 J1772COMBO,US,public,CALL,,CAR_DEALER,Free,,False,LD,False,101
-8550292.45943238,4762253.81661783,ELEC,Nissan Ellicott City,8569 Baltimore National Pike,,Ellicott City,MD,21043,,,E,,Private,,,,1,,,Non-Networked,,GPS,39.282746,-76.808584,2022/03/07 00:00:00+00,47695,2023/02/14 15:54:11,P,,,2012/01/31 00:00:00+00,J1772,US,private,,,CAR_DEALER,,,,LD,False,102
-8529272.44526385,4746422.98629029,ELEC,Sheehy Nissan,7232 Ritchie Hwy,,Glen Burnie,MD,21061,,410-760-3500,E,,Public - Call ahead,Dealership business hours,,,1,1,,Non-Networked,,GPS,39.172584,-76.619758,2022/03/07 00:00:00+00,47696,2023/02/14 15:54:11,P,,,2012/01/31 00:00:00+00,CHADEMO J1772,US,public,CALL,,CAR_DEALER,Free,,False,LD,False,103
-8529272.44526385,4746422.98629029,ELEC,Sheehy Nissan,7232 Ritchie Hwy,,Glen Burnie,MD,21061,,410-760-3500,E,,Private,,,,1,,,Non-Networked,,GPS,39.172584,-76.619758,2022/03/07 00:00:00+00,47697,2023/02/14 15:54:11,P,,,2012/01/31 00:00:00+00,J1772,US,private,,,CAR_DEALER,,,,LD,False,104
-8551893.82249694,4736243.47300682,ELEC,Ourisman Nissan,3510 Ft Meade Rd,,Laurel,MD,20724,,,E,,Public - Call ahead,"Dealership business hours; contact 301-725-4400 for more information",,,1,,,Non-Networked,,GPS,39.1016565055262,-76.8229692891632,2020/06/09 00:00:00+00,47700,2023/02/15 22:45:41,P,,,2012/01/31 00:00:00+00,J1772,US,public,CALL,,CAR_DEALER,Free,,False,,False,107
-8551893.82249694,4736243.47300682,ELEC,Ourisman Nissan,3510 Ft Meade Rd,,Laurel,MD,20724,,,E,,Private,,,,1,,,Non-Networked,,GPS,39.1016565055262,-76.8229692891632,2020/06/09 00:00:00+00,47701,2023/02/15 22:45:41,P,,,2012/01/31 00:00:00+00,J1772,US,private,,,CAR_DEALER,Free,,,,False,108
-8561092.23115118,4668818.0987713,ELEC,Sheehy Nissan - Waldorf,2950 Crain Hwy,,Waldorf,MD,20601,,301-843-5300,E,,Public - Call ahead,Dealership business hours,,,2,1,,Non-Networked,,200-9,38.630057,-76.9056,2022/03/07 00:00:00+00,47711,2023/02/14 15:54:11,P,,,2012/01/31 00:00:00+00,CHADEMO J1772,US,public,CALL,,CAR_DEALER,Free,,False,LD,False,114
-8574380.77272565,4707864.3377693,ELEC,Marriott Marquis Washington D.C. - Tesla Destination,901 Massachusetts Ave NW,,Washington,DC,20001,,202-824-9200  877-798-3752,E,,Public,,,,3,,,Tesla Destination,https://www.tesla.com/destination-charging,200-9,38.903543,-77.024973,2022/10/06 00:00:00+00,113674,2023/01/18 15:15:20,P,,,2015/12/07 00:00:00+00,J1772 TESLA,US,public,,,HOTEL,Free,,,,False,115
-8602132.61046092,4668747.27684972,ELEC,Cowles Nissan,14777 Jefferson Davis Hwy,,Woodbridge,VA,22191,,,E,,Private,,,,2,,,Non-Networked,,GPS,38.62956,-77.274272,2020/06/09 00:00:00+00,47868,2023/02/15 22:45:41,P,,,2012/01/31 00:00:00+00,J1772,US,private,,,CAR_DEALER,Free,,,,False,116
-8532899.34559339,4774557.4735425,ELEC,MTA LTR MT WASHNGTN,5701 Smith Ave,,Baltimore,MD,21209,,888-758-4389,E,,Public,24 hours daily,,,2,,,ChargePoint Network,http://www.chargepoint.com/,GPS,39.368244,-76.652339,2023/10/06 00:00:00+00,48038,2023/10/06 00:23:42,,,,2012/05/31 00:00:00+00,J1772,US,public,,,,,,,,False,119
-8575625.23557712,4707662.14339596,ELEC,The St. Regis Washington D.C. - Tesla Destination,923 16th St NW,,Washington,DC,20006,,202-638-2626  877-798-3752,E,,Public,,,,1,,,Tesla Destination,https://www.tesla.com/destination-charging,200-9,38.9021295,-77.0361522,2022/10/06 00:00:00+00,113675,2023/01/18 15:15:20,P,,,2015/10/06 00:00:00+00,TESLA,US,public,,,HOTEL,Free,,,,False,120
-8574241.62336215,4706549.96750068,ELEC,Florida Power & Light - Washington DC Office,801 Pennsylvania Ave NW,Suite 220,Washington,DC,20004,,,E,,Private,,,,1,,,Non-Networked,,200-9,38.894354,-77.023723,2021/04/08 00:00:00+00,48074,2023/02/15 22:45:41,T,,,2012/01/01 00:00:00+00,J1772,US,private,,,UTILITY,,,,,False,121
-8513499.73132869,4717726.46897018,ELEC,Inn at Horn Point - Tesla Destination,534  Burnside Street,,Annapolis,MD,21403,,410-268-1126  877-798-3752,E,,Public,,,,3,,,Tesla Destination,https://www.tesla.com/destination-charging,200-9,38.972453,-76.4780693,2022/10/06 00:00:00+00,114359,2023/01/18 15:15:20,P,,,2017/11/30 00:00:00+00,TESLA,US,public,,,INN,Free,,,,False,122
-8585203.14230108,4694445.7009201,ELEC,Passport Nissan - Alexandria,150 S Pickett St,,Alexandria,VA,22304,,703-823-9000,E,,Private,,,,1,,,Non-Networked,,200-9,38.809675,-77.122192,2022/03/07 00:00:00+00,48258,2023/02/14 15:54:11,P,,,2011/03/15 00:00:00+00,J1772,US,private,,,CAR_DEALER,Free,,,LD,False,123
-8521210.24246264,4719168.30817854,ELEC,Doubletree by Hilton Annapolis - Tesla Destination,210 Holiday Ct,,Annapolis,MD,21401,,410-224-3150  877-798-3752,E,,Public,,,,1,,,Tesla Destination,https://www.tesla.com/destination-charging,200-8,38.982522,-76.547334,2022/10/06 00:00:00+00,114360,2023/01/18 15:15:20,P,,,2016/01/25 00:00:00+00,TESLA,US,public,,,HOTEL,Free,,,,False,124
-8622826.45852142,4707321.91950129,ELEC,Priority Nissan - Chantilly,14840 Stonecroft Center Ct,,Chantilly,VA,20151,,703-889-3700,E,,Private,,,,1,,,Non-Networked,,200-9,38.899751,-77.460168,2022/03/07 00:00:00+00,48259,2023/02/14 15:54:11,P,,,2011/03/15 00:00:00+00,J1772,US,private,,,CAR_DEALER,Free,,,LD,False,125
-8622726.93889665,4687473.62192792,ELEC,Sheehy Nissan - Manassas,9010 Liberia Ave,,Manassas,VA,20110,,703-361-5161,E,,Private,,,,1,,,Non-Networked,,200-9,38.760854,-77.459274,2022/03/07 00:00:00+00,48265,2023/02/14 15:54:11,P,,,2011/03/15 00:00:00+00,J1772,US,private,,,CAR_DEALER,Free,,,LD,False,129
-8620403.14452635,4723169.8453375,ELEC,Brown's Dulles Nissan,45155 Towlern Pl,,Sterling,VA,20166,,703-948-1100,E,,Private,,,,1,,,Non-Networked,,200-9,39.010459,-77.438399,2022/03/07 00:00:00+00,48268,2023/02/14 15:54:11,P,,,2011/03/15 00:00:00+00,J1772,US,private,,,CAR_DEALER,Free,,,LD,False,132
-8599405.39425597,4747116.56101961,ELEC,Criswell Nissan,19574 Amaranth Dr,,Germantown,MD,20874,,301-670-3900,E,,Private,,,,1,,,Non-Networked,,200-9,39.177414,-77.249773,2020/06/09 00:00:00+00,48398,2023/02/15 22:45:41,P,,,2011/03/15 00:00:00+00,J1772,US,private,,,CAR_DEALER,Free,,,,False,136
-8589525.01021164,4737979.41063936,ELEC,Darcars Nissan,15911 Indianola Dr,,Rockville,MD,20855,,301-309-2200,E,,Private,,,,1,,,Non-Networked,,200-9,39.113757,-77.161016,2022/03/07 00:00:00+00,48400,2023/02/14 15:54:11,P,,,2011/03/15 00:00:00+00,J1772,US,private,,,CAR_DEALER,,,,LD,False,137
-8565804.71915493,4732771.27010222,ELEC,Herb Gordon Nissan,3131 Automobile Blvd,,Silver Spring,MD,20904,,301-890-8200,E,,Private,,,,1,,,Non-Networked,,200-9,39.077447,-76.947933,2020/06/09 00:00:00+00,48401,2023/02/15 22:45:41,P,,,2011/03/15 00:00:00+00,J1772,US,private,,,CAR_DEALER,Free,,,,False,138
-8563055.12773234,4696893.86602417,ELEC,Passport Nissan - Marlow Heights,5000 Auth Way,,Suitland,MD,20746,,,E,,Private,,,,1,,,Non-Networked,,200-9,38.82681,-76.923233,2022/03/07 00:00:00+00,48402,2023/02/14 15:54:11,P,,,2011/03/15 00:00:00+00,J1772,US,private,,,CAR_DEALER,Free,,,LD,False,139
-8601333.89311448,4712856.46108317,ELEC,Wolf Trap - Maintenance Yard,1551 Trap Rd,,Vienna,VA,22182,,,E,,Private,,,,1,,,Non-Networked,,200-8,38.938433,-77.267097,2021/02/22 00:00:00+00,48597,2021/03/11 23:22:17,FG,16,Department of the Interior,2012/08/01 00:00:00+00,J1772,US,private,,DOI,FED_GOV,,SOLAR,,,False,140
-8554437.77463054,4721372.20243447,ELEC,Goddard Space Flight Center,8800 Greenbelt Rd,,Greenbelt,MD,20771,,,E,,Private,"NASA fleet use only; Also accessible through chip keys",Proprietor Wright_Exp,,1,,,Non-Networked,,GPS,38.99791,-76.845822,2022/07/12 00:00:00+00,48668,2023/02/14 15:54:11,FG,22,National Aeronautics and Space Administration,2012/08/01 00:00:00+00,J1772,US,private,,NASA,FED_GOV,,SOLAR,,,False,141
-8595251.730096,4710824.8757516,ELEC,Capital One - C2,1680 Capital One Dr,,McLean,VA,22102,,,E,,Public,24 hours daily,,,8,,,Non-Networked,,GPS,38.9242363,-77.21246,2023/01/10 00:00:00+00,49397,2023/02/14 15:54:11,P,,,2012/08/31 00:00:00+00,J1772,US,public,,,OFFICE_BLDG,,,False,LD,True,142
-8605507.03818533,4697237.95651741,ELEC,GEORGE MASON U SHENANDOAH 2,4400 University Dr,,Fairfax,VA,22030,,888-758-4389,E,,Public,24 hours daily,,,2,,,ChargePoint Network,http://www.chargepoint.com/,GPS,38.829218,-77.304585,2023/10/06 00:00:00+00,49751,2023/10/06 00:14:34,,,,2015/10/02 00:00:00+00,J1772,US,public,,,,,,,,False,146
-8526984.49576958,4744740.79877961,ELEC,Old Farm Court,115 Old Farm Ct,Located at the end of the cul-de-sac,Glen Burnie,MD,21060,,410-570-9616,E,,Public,24 hours daily,,1,,,,Non-Networked,,200-8,39.160868,-76.599205,2021/09/10 00:00:00+00,50379,2022/02/10 19:42:29,P,,,2012/12/01 00:00:00+00,NEMA520,US,public,,,STREET_PARKING,Free,SOLAR,False,LD,False,147
-8529476.38257098,4741540.87879988,ELEC,Baltimore Washington Medical Center,300 Hospital Dr,"Chargers located on the 4th, 5th, and 6th floors of garage.",Glen Burnie,MD,21061,,410-787-4412,E,,Public,"24 hours daily; Drivers must bring their own J1772 cordset for Level 1 charging",,7,,,,Non-Networked,,200-8,39.138576,-76.62159,2021/12/09 00:00:00+00,51086,2022/02/10 21:00:18,P,,,2012/12/01 00:00:00+00,NEMA520,US,public,,,HOSPITAL,Free,,False,LD,False,148
-8570428.37420503,4703915.15943484,ELEC,Maritime Plaza,1201 M St SE,,Washington,DC,20003,,,E,,Private,Tenant and guest use only,,,2,,,Non-Networked,,200-9,38.87593,-76.989468,2023/08/10 00:00:00+00,51735,2023/08/10 16:58:49,P,,,2012/12/01 00:00:00+00,J1772,US,private,,,OFFICE_BLDG,$0.20 per kWh,,,LD,False,149
-8536499.08396717,4750123.75142593,ELEC,FASTPARK BWI 1,1718 W Nursery Rd,,Linthicum Heights,MD,21090,,888-758-4389,E,,Public,24 hours daily,,,2,,,ChargePoint Network,http://www.chargepoint.com/,GPS,39.198352,-76.684676,2023/10/06 00:00:00+00,51983,2023/10/06 00:13:32,,,,2013/05/15 00:00:00+00,J1772,US,public,,,,,,,,False,153
-8559507.82083872,4670736.74741628,ELEC,Waldorf Ford,2440 Crain Hwy,"Located on the right side of the building, near Honda building",Waldorf,MD,20601,,301-843-2400,E,,Public - Call ahead,Dealership business hours,,,3,,,Non-Networked,,200-9,38.64352,-76.891367,2023/09/14 00:00:00+00,51989,2023/09/14 14:01:49,P,,,2013/01/04 00:00:00+00,J1772,US,public,CALL,,CAR_DEALER,Free,,True,LD,False,154
-8565312.35304715,4699058.48609435,ELEC,Smithsonian Transportation Repair Shop - Garber Facility,3904 Old Silver Hill Rd,,Suitland,MD,20746,,,E,,Private - Government only,,,,2,,,Non-Networked,,200-8,38.841957,-76.94351,2022/07/12 00:00:00+00,52470,2023/05/30 18:46:28,FG,23,Smithsonian Institution,2013/06/30 00:00:00+00,J1772,US,private,GOVERNMENT,SI,FLEET_GARAGE,,SOLAR,,,False,156
-8588054.59105775,4690021.06691541,ELEC,BEULAH II BEULAH GATEWAY2,6412 Beulah St,,Alexandria,VA,22310,,888-758-4389,T,2022/09/09 00:00:00+00,TEMPORARILY UNAVAILABLE (Public),24 hours daily,,,2,,,ChargePoint Network,http://www.chargepoint.com/,GPS,38.778696,-77.147807,2023/10/06 00:00:00+00,52855,2023/10/06 00:14:48,,,,2015/10/02 00:00:00+00,J1772,US,public,,,,,,,,False,158
-8557088.40302582,4732268.38401392,ELEC,Academy Ford,13401 Baltimore Ave,,Laurel,MD,20707,,,E,,Private,Service center use only,,,2,,,Non-Networked,,200-9,39.07394,-76.869633,2023/09/14 00:00:00+00,53226,2023/09/14 14:01:49,P,,,2013/02/19 00:00:00+00,J1772,US,private,,,CAR_DEALER,Free,,,LD,False,160
-8521629.24902598,4779105.97087277,ELEC,Bob Davidson Ford Lincoln,1845 E Joppa Rd,,Baltimore,MD,21234,,410-661-6400,E,,Public - Call ahead,Dealership business hours,,,1,,,Non-Networked,,GPS,39.399825,-76.551098,2021/10/12 00:00:00+00,53863,2023/09/25 14:53:22,P,,,2013/04/01 00:00:00+00,J1772,US,public,CALL,,CAR_DEALER,Free,,True,LD,False,164
-8551370.81133969,4748562.88221694,ELEC,Apple Ford Lincoln,8800 Stanford Blvd,,Columbia,MD,21045,,,E,,Private,Service center use only,,,4,,,Non-Networked,,200-9,39.187485,-76.818271,2022/11/10 00:00:00+00,53864,2023/02/15 22:45:41,P,,,2013/08/01 00:00:00+00,J1772,US,private,,,CAR_DEALER,Free,,,LD,False,165
-8606335.03255785,4672030.96638108,ELEC,Cowles Parkway Ford,13779 Noblewood Plaza,,Woodbridge,VA,22193,,,E,,Private,Service center use only,,,1,,,Non-Networked,,200-9,38.6526,-77.312023,2023/01/10 00:00:00+00,53965,2023/02/14 15:54:11,P,,,2013/04/01 00:00:00+00,J1772,US,private,,,CAR_DEALER,,,,LD,False,175
-8579390.59508931,4706582.29190324,ELEC,Monday Properties,1100 Wilson Blvd,Located on level G5 of parking garage,Arlington,VA,22209,,703-284-0200,E,,Public,"Garage business hours; pay lot",,4,2,,,Non-Networked,,200-9,38.89458,-77.069977,2021/12/09 00:00:00+00,53994,2023/06/16 17:39:11,P,,,2013/10/01 00:00:00+00,J1772 NEMA515,US,public,,,PAY_GARAGE,,,False,LD,False,176
-8622761.00266084,4707598.5606418,ELEC,Ted Britt Ford,4175 Auto Park Cir,,Chantilly,VA,20151,,,E,,Private,Service center use only,,,1,,,Non-Networked,,200-9,38.901685,-77.45958,2023/01/10 00:00:00+00,54006,2023/02/14 15:54:11,P,,,2013/10/01 00:00:00+00,J1772,US,private,,,CAR_DEALER,,,,LD,False,182
-8560769.40462788,4743316.4135136,ELEC,MAPLE LAWN 6 STATION 01,8135 Maple Lawn Blvd,,Fulton,MD,20759,,888-758-4389,E,,Public,24 hours daily,,,2,,,ChargePoint Network,http://www.chargepoint.com/,GPS,39.150946,-76.9027,2023/10/06 00:00:00+00,55670,2023/10/06 00:04:30,,,,2011/12/31 00:00:00+00,J1772,US,public,,,,,,,,False,185
-8576495.62041174,4708423.80847879,ELEC,LENKIN CO 1300 B,1300 19th St NW,,Washington,DC,20036,,888-758-4389,E,,Public,24 hours daily,,,2,,,ChargePoint Network,http://www.chargepoint.com/,GPS,38.907454,-77.043971,2023/10/06 00:00:00+00,56564,2023/10/06 00:18:31,,,,2012/01/31 00:00:00+00,J1772,US,public,,,,,,,,False,186
-8578250.12690613,4707612.14972342,ELEC,WASH HARBOUR STATION 1,3000 K St NW,,Washington,DC,20007,,888-758-4389,E,,Public,24 hours daily,,,2,,,ChargePoint Network,http://www.chargepoint.com/,GPS,38.90178,-77.059732,2023/10/06 00:00:00+00,57221,2023/10/06 00:18:16,,,,2011/12/15 00:00:00+00,J1772,US,public,,,,,,,,False,187
-8564252.14621684,4751995.90636128,ELEC,COLUMBIA ASSOC COLUMBIA GYM,6151 Day Long Ln,,Clarksville,MD,21029,,888-758-4389,E,,Public,24 hours daily,,,1,,,ChargePoint Network,http://www.chargepoint.com/,GPS,39.211384,-76.933986,2023/10/06 00:00:00+00,61601,2023/10/06 00:11:49,,,,2014/05/06 00:00:00+00,J1772,US,public,,,,,,,,False,192
-8528922.12282632,4780615.39019012,ELEC,TOWSON BMW STATION 01,700 Kenilworth Dr,,Towson,MD,21204,,888-758-4389,E,,Public,24 hours daily,,,2,,,ChargePoint Network,http://www.chargepoint.com/,GPS,39.410302,-76.616611,2023/10/06 00:00:00+00,61603,2023/10/06 00:05:00,,,,2014/05/06 00:00:00+00,J1772,US,public,,,,,,,,False,194
-8546038.27377222,4763294.82428068,ELEC,BMW CATONSVILLE STATION 01,6700 Baltimore National Pike,,Baltimore,MD,21228,,888-758-4389,E,,Public,24 hours daily,,,2,,,ChargePoint Network,http://www.chargepoint.com/,GPS,39.289984,-76.770368,2023/10/06 00:00:00+00,61608,2023/10/06 00:05:01,,,,2014/05/06 00:00:00+00,J1772,US,public,,,,,,,,False,195
-8581843.85402741,4719262.96782017,ELEC,CENTRAL GARAGE CENTRAL GARAGE,7315 Wisconsin Ave Enter by Hilton Garden Inn,,Bethesda,MD,20814,,888-758-4389,E,,Public,24 hours daily,,,2,,,ChargePoint Network,http://www.chargepoint.com/,GPS,38.983183,-77.092015,2023/10/06 00:00:00+00,62102,2023/10/06 00:05:22,,,,2014/06/11 00:00:00+00,J1772,US,public,,,,,,,,False,196
-8598103.73545013,4711310.05693309,ELEC,POA STATION 3,8421 Broad St,,McLean,VA,22102,,888-758-4389,E,,Public,24 hours daily,,,2,,,ChargePoint Network,http://www.chargepoint.com/,GPS,38.927627,-77.23808,2023/10/06 00:00:00+00,62246,2023/10/06 00:21:12,,,,2014/06/25 00:00:00+00,J1772,US,public,,,,,,,,False,197
-8596204.84757618,4710155.77386304,ELEC,TYSON TOWER TYSONS TOWER 4,7900 Tysons One Pl,,Tysons Corner,VA,22102,,888-758-4389,E,,Public,24 hours daily,,,1,,,ChargePoint Network,http://www.chargepoint.com/,GPS,38.91956,-77.221022,2023/10/06 00:00:00+00,62503,2023/10/06 00:04:59,,,,2014/07/17 00:00:00+00,J1772,US,public,,,,,,,,False,198
-8520011.10890781,4773148.73678532,ELEC,OAK CREST TOWN CENTER,3700 E Northern Pkwy,,Baltimore,MD,21206,,888-758-4389,E,,Public,24 hours daily,,,2,,,ChargePoint Network,http://www.chargepoint.com/,GPS,39.35846,-76.536562,2023/10/06 00:00:00+00,63262,2023/10/06 00:05:13,,,,2014/09/12 00:00:00+00,J1772,US,public,,,,,,,,False,199
-8512658.01126295,4721029.15517298,ELEC,NAVY EXCHANGE ANNAPOLIS,693 Kinkaid Rd,,Annapolis,MD,21402,,888-758-4389,E,,Public,24 hours daily,,,2,,,ChargePoint Network,http://www.chargepoint.com/,GPS,38.995515,-76.470508,2023/10/06 00:00:00+00,63769,2023/10/06 00:05:48,,,,2014/10/17 00:00:00+00,J1772,US,public,,,,,,,,False,204
-8529676.20105696,4763109.56939983,ELEC,UM PTS PLAZA #2,500-598 W Redwood St,,Baltimore,MD,21201,,888-758-4389,E,,Public,24 hours daily,,,2,,,ChargePoint Network,http://www.chargepoint.com/,GPS,39.288696,-76.623385,2023/10/06 00:00:00+00,63824,2023/10/06 00:05:53,,,,2014/10/21 00:00:00+00,J1772,US,public,,,,,,,,False,205
-8585914.02856928,4694249.13030764,ELEC,BMW ALEXANDRIA STATION 01,499 S Pickett St,,Alexandria,VA,22304,,888-758-4389,T,2022/09/09 00:00:00+00,TEMPORARILY UNAVAILABLE (Public),24 hours daily,,,2,,,ChargePoint Network,http://www.chargepoint.com/,GPS,38.808299,-77.128578,2023/10/06 00:00:00+00,63847,2023/10/06 00:04:58,,,,2015/10/02 00:00:00+00,J1772,US,public,,,,,,,,False,206
-8576376.17459811,4707853.32318615,ELEC,TOWER COMPANIES 1828 L ST NW #1,1828 L St NW,,Washington,DC,20036,,888-758-4389,E,,Public,24 hours daily,,,2,,,ChargePoint Network,http://www.chargepoint.com/,GPS,38.903466,-77.042898,2023/10/06 00:00:00+00,64548,2023/10/06 00:18:50,,,,2014/12/09 00:00:00+00,J1772,US,public,,,,,,,,False,209
-8575953.82845004,4707926.70628363,ELEC,TOWER COMPANIES 1707 L STREET 1,1707 L St NW,,Washington,DC,20036,,888-758-4389,E,,Public,24 hours daily,,,2,,,ChargePoint Network,http://www.chargepoint.com/,GPS,38.903979,-77.039104,2023/10/06 00:00:00+00,64549,2023/10/06 00:15:10,,,,2014/12/09 00:00:00+00,J1772,US,public,,,,,,,,False,210
-8595838.04985401,4744522.1464673,ELEC,KING VW VW_409151_A,979 N Frederick Ave,,Gaithersburg,MD,20879,,888-758-4389,T,2023/09/02 00:00:00+00,TEMPORARILY UNAVAILABLE (Public),24 hours daily,,,2,,,ChargePoint Network,http://www.chargepoint.com/,GPS,39.159345,-77.217727,2023/10/06 00:00:00+00,65645,2023/10/06 00:06:04,,,,2015/02/11 00:00:00+00,J1772,US,public,,,,,,,,False,212
-8582190.83688021,4718847.38849709,ELEC,MCDOT-PARKING GARAGE 31- 3,7171 Woodmont Ave,,Bethesda,MD,20815,,888-758-4389,E,,Public,24 hours daily,,,2,,,ChargePoint Network,http://www.chargepoint.com/,GPS,38.980281,-77.095132,2023/10/06 00:00:00+00,65654,2023/10/06 00:06:22,,,,2015/02/12 00:00:00+00,J1772,US,public,,,,,,,,False,213
-8581033.8934124,4716011.10630013,ELEC,Chevy Chase Pavilion,5355 Wisconsin Ave NW,Entrance on Wisconsin Circle,Washington,DC,20015,,202-686-5335,E,,Public,"Restricted to garage hours; pay lot",,,2,,,Non-Networked,,GPS,38.960472,-77.084739,2023/08/10 00:00:00+00,65672,2023/08/10 16:58:49,P,,,2013/04/30 00:00:00+00,J1772,US,public,,,PAY_GARAGE,Free,,False,LD,False,214
-8564760.09705333,4699029.04405675,ELEC,Smithsonian Museum Support Center,4210 Silver Hill Rd,,Camp Springs,MD,20746,,,E,,Private,GOV Only,,,2,,,Non-Networked,,200-8,38.841751,-76.938549,2021/02/22 00:00:00+00,65688,2021/03/11 23:22:17,FG,23,Smithsonian Institution,2015/01/26 00:00:00+00,J1772,US,private,,SI,FED_GOV,,,,,False,215
-8528594.84352339,4762523.33494542,ELEC,Hyatt Regency Baltimore - Tesla Destination,300 Light St,,Baltimore,MD,21202,,410-528-1234  877-798-3752,E,,Public,,,,5,,,Tesla Destination,https://www.tesla.com/destination-charging,200-8,39.28462,-76.613671,2022/10/06 00:00:00+00,114361,2023/01/18 15:15:20,P,,,2014/12/12 00:00:00+00,J1772 TESLA,US,public,,,HOTEL,Free,,,,False,217
-8582186.38410058,4718845.95648201,ELEC,MCDOT-PARKING GARAGE 31- 2,7171 Woodmont,,Bethesda,MD,20815,,888-758-4389,E,,Public,24 hours daily,,,2,,,ChargePoint Network,http://www.chargepoint.com/,GPS,38.980271,-77.095092,2023/10/06 00:00:00+00,65761,2023/10/06 00:06:22,,,,2015/02/19 00:00:00+00,J1772,US,public,,,,,,,,False,218
-8528848.54064291,4762520.74615451,ELEC,Sheraton Inner Harbor Hotel - Tesla Destination,300 South Charles St,,Baltimore,MD,21201,,410-962-8300  877-798-3752,E,,Public,,,,4,,,Tesla Destination,https://www.tesla.com/destination-charging,200-9,39.284602,-76.61595,2022/10/06 00:00:00+00,114362,2023/01/18 15:15:20,P,,,2016/10/28 00:00:00+00,J1772 TESLA,US,public,,,HOTEL,Free,,,,False,219
-8528810.02409909,4763731.36614315,ELEC,Cazbar - Tesla Destination,316 N Charles St,,Baltimore,MD,21201,,410-528-1222  877-798-3752,E,,Public,,,,1,,,Tesla Destination,https://www.tesla.com/destination-charging,200-9,39.293019,-76.615604,2022/10/06 00:00:00+00,114363,2023/01/18 15:15:20,P,,,2015/09/28 00:00:00+00,TESLA,US,public,,,RESTAURANT,Free,,,,False,221
-8529250.51532416,4769653.08836225,ELEC,Doubletree Inn at The Colonnade - Tesla Destination,4 W University Pkwy,,Baltimore,MD,21218,,410-235-5400  877-798-3752,E,,Public,,,,5,,,Tesla Destination,https://www.tesla.com/destination-charging,200-9,39.334176,-76.619561,2022/10/06 00:00:00+00,114364,2023/01/18 15:15:20,P,,,2018/02/20 00:00:00+00,J1772 TESLA,US,public,,,INN,Free,,,,False,223
-8582275.5510127,4720415.2799494,ELEC,DoubleTree by Hilton Hotel Bethesda - Tesla Destination,8120 Wisconsin,,Bethesda,MD,20814,,301-652-2000  877-798-3752,E,,Public,,,,2,,,Tesla Destination,https://www.tesla.com/destination-charging,200-9,38.991229,-77.095893,2022/10/06 00:00:00+00,114365,2023/01/18 15:15:20,P,,,2017/07/25 00:00:00+00,J1772 TESLA,US,public,,,HOTEL,Free,,,,False,224
-8529902.62490123,4766008.16313833,ELEC,Maryland Institute College of Art - Commons Hall,130 McMechen St,,Baltimore,MD,21217,,410-669-9200,E,,Public,24 hours daily,,,2,,,Non-Networked,,200-8,39.308846,-76.625419,2022/11/10 00:00:00+00,66639,2023/02/14 15:54:11,P,,,2015/01/12 00:00:00+00,J1772,US,public,,,COLLEGE_CAMPUS,Free,,False,LD,False,225
-8529180.38404496,4766280.65946999,ELEC,Maryland Institute College of Art - Lazarus Center,131 W North Ave,,Baltimore,MD,21201,,410-669-9200,E,,Public,8am-5pm daily,,,4,,,Non-Networked,,200-9,39.31074,-76.618931,2022/11/10 00:00:00+00,66640,2023/02/14 15:54:11,P,,,2015/01/12 00:00:00+00,J1772,US,public,,,COLLEGE_CAMPUS,Free,,False,LD,False,227
-8529032.88571966,4765073.90488447,ELEC,University of Baltimore - Maryland Avenue Garage,1104 Maryland Ave,,Baltimore,MD,21201,,410-837-4200,E,,Public,Garage business hours,,,3,,,Non-Networked,,200-8,39.302352,-76.617606,2022/11/10 00:00:00+00,66641,2023/02/14 15:54:11,P,,,2015/04/01 00:00:00+00,J1772,US,public,,,COLLEGE_CAMPUS,Free,,False,LD,False,229
-8528931.80762202,4765089.44157809,ELEC,Mayflower Properties,1110 Morton St,,Baltimore,MD,21201,,410-685-1109,E,,Public - Call ahead,9am-5pm daily,,,1,,,Non-Networked,,200-8,39.30246,-76.616698,2022/11/10 00:00:00+00,66642,2023/02/14 15:54:11,P,,,2015/02/27 00:00:00+00,J1772,US,public,CALL,,OFFICE_BLDG,Free,,False,LD,False,231
-8554491.31930561,4746877.60981202,ELEC,Hampton Inn & Suites Columbia/South MD - Tesla Destination,7045 Minstrel Wy,,Columbia,MD,21046,,410-381-3001  877-798-3752,E,,Public,,,,6,,,Tesla Destination,https://www.tesla.com/destination-charging,200-9,39.17575,-76.846303,2022/10/06 00:00:00+00,114369,2023/01/18 15:15:20,P,,,2017/11/29 00:00:00+00,J1772 TESLA,US,public,,,HOTEL,Free,,,,False,232
-8609596.91627708,4714100.65316444,ELEC,JBG SMITH COMMERCE PARK B,11440 Commerce Park Dr,,Reston,VA,20191,,888-758-4389,E,,Public,24 hours daily,,,2,,,ChargePoint Network,http://www.chargepoint.com/,GPS,38.947126,-77.341325,2023/10/06 00:00:00+00,66647,2023/10/06 00:07:10,,,,2015/04/09 00:00:00+00,J1772,US,public,,,,,,,,False,233
-8554596.40490492,4746930.59790313,ELEC,SpringHill Suites by Marriott Columbia - Tesla Destination,7055 Minstrel Wy,,Columbia,MD,21046,,410-290-7896  877-798-3752,E,,Public,,,,6,,,Tesla Destination,https://www.tesla.com/destination-charging,200-9,39.176119,-76.847247,2022/10/06 00:00:00+00,114370,2023/01/18 15:15:20,P,,,2017/11/29 00:00:00+00,J1772 TESLA,US,public,,,HOTEL,Free,,,,False,235
-8548637.47256276,4780033.89761689,ELEC,CareFirst BlueCross BlueShield,10455 Mill Run Cir,Employee garage,Owings Mills,MD,21117,,,E,,Private,Employee use only,,,6,,,Non-Networked,,200-8,39.406266,-76.793717,2023/01/10 00:00:00+00,67144,2023/02/15 22:45:41,P,,,2014/08/12 00:00:00+00,J1772,US,private,,,OFFICE_BLDG,,,,LD,True,236
-8511176.3488405,4629039.1317925,ELEC,Ruddy Duck Brewery & Grill - Tesla Destination,13200 Dowell Rd,,Dowell,MD,20629,,410-394-3825  877-798-3752,E,,Public,,,,3,,,Tesla Destination,https://www.tesla.com/destination-charging,200-9,38.350362,-76.457198,2022/10/06 00:00:00+00,114371,2023/01/18 15:15:20,P,,,2017/07/13 00:00:00+00,TESLA,US,public,,,RESTAURANT,Free,,,,False,237
-8559350.41507874,4730282.75151908,ELEC,Advanced Technology and Research,12301 Kiln Ct,,Beltsville,MD,20705,,,E,,Private,,,,1,,,Non-Networked,,200-9,39.060091,-76.889953,2023/09/14 00:00:00+00,67148,2023/09/14 14:01:49,P,,,2012/04/07 00:00:00+00,J1772,US,private,,,RESEARCH_FACILITY,,,,LD,False,239
-8586137.33546781,4731637.91172921,ELEC,BMW of Rockville,1300 Rockville Pike,,Rockville,MD,20852,,,E,,Private,Service center use only,,,2,,,Non-Networked,,200-8,39.069543,-77.130584,2023/01/10 00:00:00+00,67151,2023/09/25 14:47:24,P,,,2014/09/30 00:00:00+00,J1772,US,private,,,CAR_DEALER,,,,LD,False,241
-8566780.8797697,4778712.55349587,ELEC,Haight Funeral Home & Chapel,6416 Sykesville Rd,,Sykesville,MD,21784,,410-795-1400,E,,Public - Call ahead,"24 hours daily; for client use",,,1,,,Non-Networked,,200-9,39.397094,-76.956702,2021/10/12 00:00:00+00,67733,2023/09/20 19:08:32,P,,,2015/05/20 00:00:00+00,J1772,US,public,CALL,,PLACE_OF_WORSHIP,"Free for clients; $1.50 per hour for non-clients",,True,LD,False,244
-8609552.72243924,4714083.33390258,ELEC,JBG SMITH COMMERCE PARK A,11400 Commerce Park Dr,,Reston,VA,20191,,888-758-4389,E,,Public,24 hours daily,,,2,,,ChargePoint Network,http://www.chargepoint.com/,GPS,38.947005,-77.340928,2023/10/06 00:00:00+00,67907,2023/10/06 00:07:19,,,,2015/06/18 00:00:00+00,J1772,US,public,,,,,,,,False,247
-8574802.00567881,4707361.54137399,ELEC,1212 NEW YORK STATION 1,1212 New York Ave NW,,Washington,DC,20005,,888-758-4389,E,,Public,24 hours daily,,,2,,,ChargePoint Network,http://www.chargepoint.com/,GPS,38.900028,-77.028757,2023/10/06 00:00:00+00,68205,2023/10/06 00:07:50,,,,2015/07/10 00:00:00+00,J1772,US,public,,,,,,,,False,249
-8530775.59234803,4746342.28772854,ELEC,MTA LTR CROMWELL,7378 Baltimore Annapolis Blvd,,Glen Burnie,MD,21061,,888-758-4389,E,,Public,24 hours daily,,,2,,,ChargePoint Network,http://www.chargepoint.com/,GPS,39.172022,-76.633261,2023/10/06 00:00:00+00,68244,2023/10/06 00:07:40,,,,2015/07/14 00:00:00+00,J1772,US,public,,,,,,,,False,251
-8539523.74585151,4744623.64764149,ELEC,Holiday Inn Express Baltimore-BWI Airport West - Tesla Destination,7481 Ridge Rd,,Hanover,MD,21076,,410-684-3388  877-798-3752,E,,Public,,,,3,,,Tesla Destination,https://www.tesla.com/destination-charging,200-8,39.160052,-76.711847,2022/10/06 00:00:00+00,114377,2023/01/18 15:15:20,P,,,2017/06/19 00:00:00+00,J1772 TESLA,US,public,,,HOTEL,Free,,,,False,252
-8520679.80508901,4762048.87821202,ELEC,First United Evangelical and Reformed Church,6115 O'Donnell St,,Baltimore,MD,21224,,410-617-8604,E,,Public - Call ahead,8am-5pm daily,,,1,,,Non-Networked,,200-9,39.281321,-76.542569,2022/11/10 00:00:00+00,68278,2023/02/14 15:54:11,P,,,2015/07/02 00:00:00+00,J1772,US,public,CALL,,STANDALONE_STATION,Free,,False,LD,False,254
-8541424.86011528,4713436.67386157,ELEC,City of Bowie - City Hall,15901 Excalibur Rd,,Bowie,MD,20716,,,E,,Private,"Employee use only; must have key fob to activate",,,4,,,Non-Networked,,200-9,38.942487,-76.728925,2022/09/14 00:00:00+00,68576,2023/02/15 22:45:41,LG,,,2014/12/01 00:00:00+00,J1772,US,private,,,MUNI_GOV,,,,LD,True,256
-8529510.33501567,4762889.79939461,ELEC,Marriott Garage,101 S Paca St,Located at Paca St and Lombard St,Baltimore,MD,21201,,410-385-0350,E,,Public,24 hours daily,,,3,,,Non-Networked,,200-9,39.287168,-76.621895,2022/11/10 00:00:00+00,68577,2023/02/14 15:54:11,P,,,2015/08/01 00:00:00+00,J1772,US,public,,,PARKING_GARAGE,Free,,False,LD,False,259
-8533359.65168782,4682642.76464177,ELEC,MTA BUS DUNKIRK,10839 Town Center Blvd,,Dunkirk,MD,20754,,888-758-4389,E,,Public,24 hours daily,,,2,,,ChargePoint Network,http://www.chargepoint.com/,GPS,38.727007,-76.656474,2023/10/06 00:00:00+00,68812,2023/10/06 00:07:21,,,,2015/08/05 00:00:00+00,J1772,US,public,,,,,,,,False,263
-8537333.31223117,4754936.43105608,ELEC,MTA MARC HALETHORPE,5833 SOUTHWESTERN BLVD,,HALETHORPE,MD,21227,,888-758-4389,E,,Public,24 hours daily,,,2,,,ChargePoint Network,http://www.chargepoint.com/,GPS,39.231848,-76.69217,2023/10/06 00:00:00+00,68814,2023/10/06 00:07:39,,,,2015/08/05 00:00:00+00,J1772,US,public,,,,,,,,False,265
-8532181.89147522,4752429.51664677,ELEC,MTA LTR N LINTHICUM,450 N Camp Meade Rd,,Linthicum Heights,MD,21090,,888-758-4389,E,,Public,24 hours daily,,,2,,,ChargePoint Network,http://www.chargepoint.com/,GPS,39.214402,-76.645894,2023/10/06 00:00:00+00,68842,2023/10/06 00:07:39,,,,2015/08/06 00:00:00+00,J1772,US,public,,,,,,,,False,269
-8511821.55660913,4781030.49504608,ELEC,EVSP WALGREENS STORE 5587,9621 Belair Rd,,Nottingham,MD,21236,,888-758-4389,E,,Public,24 hours daily,,,1,,,ChargePoint Network,http://www.chargepoint.com/,GPS,39.413183,-76.462994,2023/10/06 00:00:00+00,68996,2023/10/06 00:07:24,,,,2015/08/12 00:00:00+00,J1772,US,public,,,,,,,,False,275
-8522959.51694096,4762891.81297237,ELEC,EVSP WALGREENS STORE 5409,4020 Eastern Ave,,Baltimore,MD,21224,,888-758-4389,E,,Public,24 hours daily,,,1,,,ChargePoint Network,http://www.chargepoint.com/,GPS,39.287182,-76.563048,2023/10/06 00:00:00+00,69011,2023/10/06 00:07:21,,,,2015/08/14 00:00:00+00,J1772,US,public,,,,,,,,False,278
-8544711.01148349,4767646.12967589,ELEC,EVSP WALGREENS STORE 6320,2260-2298 N Rolling Rd,,Woodlawn,MD,21244,,888-758-4389,E,,Public,24 hours daily,,,1,,,ChargePoint Network,http://www.chargepoint.com/,GPS,39.32023,-76.758445,2023/10/06 00:00:00+00,69121,2023/10/06 00:07:25,,,,2015/08/20 00:00:00+00,J1772,US,public,,,,,,,,False,282
-8529343.24445999,4763081.95405723,ELEC,Redwood Garage,11 S Eutaw St,,Baltimore,MD,21201,,410-752-4550,E,,Public,24 hours daily,,,4,,,Non-Networked,,200-9,39.288504,-76.620394,2022/11/10 00:00:00+00,69736,2023/02/14 15:54:11,P,,,2015/10/01 00:00:00+00,J1772,US,public,,,PARKING_GARAGE,Free,,False,LD,False,285
-8577084.61183752,4693725.86527156,ELEC,Kimpton Morrison House - Tesla Destination,116 S Alfred St,,Alexandria,VA,22314,,703-838-8000  877-798-3752,E,,Public,,,,2,,,Tesla Destination,https://www.tesla.com/destination-charging,200-9,38.804636,-77.049262,2022/10/06 00:00:00+00,115913,2023/01/18 15:15:20,P,,,2015/11/12 00:00:00+00,J1772 TESLA,US,public,,,HOTEL,Free,,,,False,290
-8526885.42142277,4762630.62653183,ELEC,Fleet & Eden Garage,501 S Eden St,,Baltimore,MD,21231,,410-522-1039,E,,Public,Garage business hours,,,4,,,Non-Networked,,200-8,39.285366,-76.598315,2022/11/10 00:00:00+00,69942,2023/09/20 19:18:28,P,,,2015/10/15 00:00:00+00,J1772,US,public,,,PAY_GARAGE,Free,,False,LD,False,291
-8577924.62871505,4693927.71125053,ELEC,Kimpton Lorien Hotel & Spa - Tesla Destination,1600 King St,,Alexandria,VA,22314,,703-894-3434  877-798-3752,E,,Public,,,,2,,,Tesla Destination,https://www.tesla.com/destination-charging,200-9,38.806049,-77.056808,2022/10/06 00:00:00+00,115914,2023/01/18 15:15:20,P,,,2015/12/16 00:00:00+00,J1772 TESLA,US,public,,,HOTEL,Free,,,,False,292
-8582321.5259624,4719858.58484286,ELEC,MCDOT-PARKING GARAGE 11,7730 Woodmont Ave,,Bethesda,MD,20814,,888-758-4389,E,,Public,24 hours daily,,,2,,,ChargePoint Network,http://www.chargepoint.com/,GPS,38.987342,-77.096306,2023/10/06 00:00:00+00,70034,2023/10/06 00:08:33,,,,2015/09/24 00:00:00+00,J1772,US,public,,,,,,,,False,293
-8578209.05001403,4694081.9911311,ELEC,Hilton Alexandria Old Town - Tesla Destination,1767 King St,,Alexandria,VA,22314,,703-837-0440  877-798-3752,E,,Public,,,,2,,,Tesla Destination,https://www.tesla.com/destination-charging,200-9,38.807129,-77.059363,2022/10/06 00:00:00+00,115915,2023/01/18 15:15:20,P,,,2016/12/13 00:00:00+00,TESLA,US,public,,,HOTEL,Free,,,,False,294
-8528335.91438781,4763577.60344063,ELEC,Signet Garage,210 Guilford Ave,Chargers located on levels 2 and 3 of the garage,Baltimore,MD,21202,,410-685-1109,E,,Public,24 hours daily,,,8,,,Non-Networked,,200-9,39.29195,-76.611345,2022/11/10 00:00:00+00,70442,2023/02/14 15:54:11,P,,,2015/10/12 00:00:00+00,J1772,US,public,,,PARKING_GARAGE,Free,,False,LD,True,295
-8576576.43836205,4693693.72456157,ELEC,"The Alexandrian, Autograph Collection - Tesla Destination",480 King St,,Alexandria,VA,22314,,703-549-6080  877-798-3752,E,,Public,,,,2,,,Tesla Destination,https://www.tesla.com/destination-charging,200-9,38.804411,-77.044697,2022/10/06 00:00:00+00,115916,2023/01/18 15:15:20,P,,,2015/11/11 00:00:00+00,J1772 TESLA,US,public,,,HOTEL,Free,,,,False,296
-8574837.51659637,4719967.57265385,ELEC,MCDOT-PARKING GARAGE 9,8040 Kennett St,,Silver Spring,MD,20910,,888-758-4389,E,,Public,24 hours daily,,,2,,,ChargePoint Network,http://www.chargepoint.com/,GPS,38.988103,-77.029076,2023/10/06 00:00:00+00,70522,2023/10/06 00:08:33,,,,2015/10/16 00:00:00+00,J1772,US,public,,,,,,,,False,297
-8576455.76803403,4694924.00050775,ELEC,Sheraton Suites Old Town Alexandria - Tesla Destination,801 N St Asaph St,,Alexandria,VA,22314,,703-836-4700  877-798-3752,E,,Public,,,,5,,,Tesla Destination,https://www.tesla.com/destination-charging,200-8,38.813023,-77.043613,2022/10/06 00:00:00+00,115917,2023/01/18 15:15:20,P,,,2015/12/16 00:00:00+00,J1772 TESLA,US,public,,,HOTEL,Free,,,,False,298
-8581780.51323715,4719392.57133477,ELEC,MCDOT-PARKING GARAGE 47,4501-4623 Montgomery Ave,,Bethesda,MD,20814,,888-758-4389,E,,Public,24 hours daily,,,2,,,ChargePoint Network,http://www.chargepoint.com/,GPS,38.984088,-77.091446,2023/10/06 00:00:00+00,70523,2023/10/06 00:08:33,,,,2015/10/16 00:00:00+00,J1772,US,public,,,,,,,,False,299
-8528962.86575995,4763842.69813384,ELEC,Cathedral Garage,320 Cathedral St,,Baltimore,MD,21201,,410-685-1109,E,,Public,24 hours daily,,,4,,,Non-Networked,,200-9,39.293793,-76.616977,2022/11/10 00:00:00+00,70535,2023/02/14 15:54:11,P,,,2015/10/16 00:00:00+00,J1772,US,public,,,PARKING_GARAGE,Free,,False,LD,False,301
-8578318.47707348,4702014.55758594,ELEC,The Ritz-Carlton Pentagon City - Tesla Destination,1250 S Hayes St,,Arlington,VA,22202,,703-415-5000  877-798-3752,E,,Public,,,,3,,,Tesla Destination,https://www.tesla.com/destination-charging,200-9,38.862637,-77.060346,2022/10/06 00:00:00+00,115919,2023/01/18 15:15:20,P,,,2015/10/19 00:00:00+00,J1772 TESLA,US,public,,,HOTEL,Free,,,,False,302
-8580731.21571693,4706194.83493027,ELEC,2001 BOULEVARD EV STATION 01,2000 Wilson Blvd,,Arlington,VA,22201,,888-758-4389,E,,Public,24 hours daily,,,2,,,ChargePoint Network,http://www.chargepoint.com/,GPS,38.891871,-77.08202,2023/10/06 00:00:00+00,70551,2023/10/06 00:05:23,,,,2015/10/02 00:00:00+00,J1772,US,public,,,,,,,,False,303
-8581267.74226671,4706089.02699025,ELEC,2311 Wilson Blvd - Tesla Destination,2311 Wilson Blvd,,Arlington,VA,22201,,561-833-7222  877-798-3752,E,,Public,,,,5,,,Tesla Destination,https://www.tesla.com/destination-charging,200-9,38.8911312,-77.0868397,2022/10/06 00:00:00+00,115920,2023/01/18 15:15:20,P,,,2018/03/13 00:00:00+00,J1772 TESLA,US,public,,,PAY_GARAGE,Free,,,,False,305
-8573791.33602189,4705297.83363458,ELEC,"CHECK RATES 550 C STREET,SW",550 C St SW,,Washington,DC,20024,,888-758-4389,E,,Public,24 hours daily,,,2,,,ChargePoint Network,http://www.chargepoint.com/,GPS,38.885599,-77.019678,2023/10/06 00:00:00+00,70598,2023/10/06 00:08:22,,,,2015/10/21 00:00:00+00,J1772,US,public,,,,,,,,False,306
-8577320.99877622,4699836.80154732,ELEC,Renaissance Arlington Capital View Hotel - Tesla Destination,2800 S Potomac Ave,,Arlington,VA,22202,,703-413-1300  877-798-3752,E,,Public,,,,3,,,Tesla Destination,https://www.tesla.com/destination-charging,200-9,38.8474025,-77.0513855,2022/10/06 00:00:00+00,115921,2023/01/18 15:15:20,P,,,2015/06/08 00:00:00+00,J1772 TESLA,US,public,,,HOTEL,Free,,,,False,308
-8529159.3446612,4763208.66883074,ELEC,Arena Garage,201 W Baltimore St,,Baltimore,MD,21201,,410-685-1109,E,,Public,24 hours daily,,,2,,,Non-Networked,,200-8,39.289385,-76.618742,2022/11/10 00:00:00+00,70606,2023/02/14 15:54:11,P,,,2015/10/20 00:00:00+00,J1772,US,public,,,PARKING_GARAGE,Free,,False,LD,False,309
-8575071.62148551,4721214.78598654,ELEC,MCDOT-PARKING GARAGE 7,8530 Cameron St,,Silver Spring,MD,20910,,888-758-4389,E,,Public,24 hours daily,,,2,,,ChargePoint Network,http://www.chargepoint.com/,GPS,38.996811,-77.031179,2023/10/06 00:00:00+00,70699,2023/10/06 00:08:33,,,,2015/10/27 00:00:00+00,J1772,US,public,,,,,,,,False,312
-8642401.54569946,4741218.10087213,ELEC,LOUDOUN COUNTY SJP L S3,39464 E Colonial Hwy,,Hamilton,VA,20158,,888-758-4389,E,,Public,24 hours daily,,,1,,,ChargePoint Network,http://www.chargepoint.com/,GPS,39.136327,-77.636014,2023/10/06 00:00:00+00,117561,2023/10/06 00:19:06,,,,2019/02/01 00:00:00+00,J1772,US,public,,,,,,,,False,313
-8577039.86140222,4727427.21488373,ELEC,MCDOT-PARKING GARAGE 45-2,11304 Amherst Ave,,Wheaton-Glenmont,MD,20902,,888-758-4389,E,,Public,24 hours daily,,,2,,,ChargePoint Network,http://www.chargepoint.com/,GPS,39.04017,-77.04886,2023/10/06 00:00:00+00,70700,2023/10/06 00:31:57,,,,2015/10/27 00:00:00+00,J1772,US,public,,,,,,,,False,315
-8528290.27339658,4765099.79938715,ELEC,Ivy Car Barn,311 E Chase St,,Baltimore,MD,21202,,,E,,Private,,,,2,,,Non-Networked,,200-8,39.302532,-76.610935,2022/01/10 00:00:00+00,70964,2023/02/15 22:45:41,P,,,2015/11/01 00:00:00+00,J1772,US,private,,,PARKING_GARAGE,Free,,,LD,False,319
-8544884.55856964,4766823.94766293,ELEC,Centers for Medicare and Medicaid Services,7500 Security Blvd,,Windsor Mill,MD,21244,,410-685-1109,E,,Public,24 hours daily,,,10,,,Non-Networked,,200-8,39.314516,-76.760004,2022/11/10 00:00:00+00,117865,2023/02/14 15:54:11,P,,,2019/02/04 00:00:00+00,J1772,US,public,,,HOSPITAL,Free,,False,LD,False,320
-8523301.15645821,4765539.44066237,ELEC,Department of General Services - Parking Lot,3800 E Biddle St,,Baltimore,MD,21213,,,E,,Private,Employee use only,,,8,,,Non-Networked,,200-9,39.305588,-76.566117,2022/01/10 00:00:00+00,71142,2023/02/15 22:45:41,P,,,2015/12/01 00:00:00+00,J1772,US,private,,,PARKING_LOT,Free,,,LD,True,321
-8528014.08973992,4763513.45243647,ELEC,Lexington Street Garage,510 E Lexington St,,Baltimore,MD,21202,,410-685-1109,E,,Public,24 hours daily,,,2,,,Non-Networked,,200-9,39.291504,-76.608454,2022/11/10 00:00:00+00,117869,2023/09/14 20:21:22,P,,,2019/02/12 00:00:00+00,J1772,US,public,,,PARKING_GARAGE,Free,,False,LD,False,323
-8528346.93501739,4763083.39235445,ELEC,Water Street Garage,22 S Gray St,,Baltimore,MD,21201,,410-685-1109,E,,Public,24 hours daily,,,6,,,Non-Networked,,GPS,39.288514,-76.611444,2022/11/10 00:00:00+00,71143,2023/02/14 15:54:11,P,,,2015/11/15 00:00:00+00,J1772,US,public,,,PARKING_GARAGE,Free,,False,LD,False,324
-8575406.35919432,4703982.6514185,ELEC,United States Park Police - District 1,1200 Ohio Dr DW,,Washington,DC,20242,,,E,,Private,Fleet use only,,,4,,,Non-Networked,,200-9,38.876402,-77.034186,2021/02/22 00:00:00+00,118526,2023/03/10 21:33:17,FG,16,Department of the Interior,2019/03/15 00:00:00+00,J1772,US,private,,DOI,NATL_PARK,,,,,False,326
-8571897.7914835,4692242.64152368,ELEC,TONH STATION 2,6800 Oxon Hill Rd,,Oxon hill,MD,20745,,888-758-4389,E,,Public,24 hours daily,,,2,,,ChargePoint Network,http://www.chargepoint.com/,GPS,38.794252,-77.002668,2023/10/06 00:00:00+00,71268,2023/10/06 00:07:47,,,,2015/11/21 00:00:00+00,J1772,US,public,,,,,,,,False,327
-8573207.68793167,4690926.00443934,ELEC,National Harbor - Tesla Supercharger,150 Potomac Passage,,Oxon Hill,MD,20745,,877-798-3752,E,,Public,24 hours daily,,,,12,,Tesla,https://www.tesla.com/supercharger,200-8,38.785033,-77.014435,2023/07/01 00:00:00+00,118951,2023/07/14 19:41:28,P,,,2019/02/01 00:00:00+00,TESLA,US,public,,,SHOPPING_CENTER,,,,,False,329
-8571888.55196577,4692243.49848579,ELEC,TONH STATION 1,6800 Oxon Hill Rd,,Fort Washington,MD,20745,,888-758-4389,E,,Public,24 hours daily,,,2,,,ChargePoint Network,http://www.chargepoint.com/,GPS,38.794258,-77.002585,2023/10/06 00:00:00+00,71269,2023/10/06 00:07:54,,,,2015/11/21 00:00:00+00,J1772,US,public,,,,,,,,False,330
-8557075.48996489,4706056.10346837,ELEC,Prince George County - Public Safety Complex,7915 Anchor St,,Hyattsville,MD,20785,,,E,,Private,,,,4,,,Non-Networked,,200-9,38.890901,-76.869517,2022/01/10 00:00:00+00,118963,2023/02/15 22:45:41,LG,,,2019/02/25 00:00:00+00,J1772,US,private,,,MUNI_GOV,,,,LD,False,331
-8550985.31194308,4757819.59262348,ELEC,YMCA - Dancel,4331 Montgomery Rd,,Ellicott City,MD,21043,,410-685-1109,E,,Public,24 hours daily,,,4,,,Non-Networked,,200-9,39.251907,-76.814808,2022/11/10 00:00:00+00,118967,2023/02/14 15:54:11,P,,,2019/02/28 00:00:00+00,J1772,US,public,,,REC_SPORTS_FACILITY,Free,,False,LD,False,333
-8531804.62972092,4766159.08548577,ELEC,Maryland Institute of College and Art,1601 W North Ave,,Baltimore,MD,21217,,,E,,Private,Employee and student use only,,,1,,,Non-Networked,,200-9,39.309895,-76.642505,2022/01/10 00:00:00+00,71490,2023/02/15 22:45:41,P,,,2015/11/24 00:00:00+00,J1772,US,private,,,COLLEGE_CAMPUS,,,,LD,True,334
-8559979.48152121,4703292.59562117,ELEC,01 ST. PAUL SP APT,1207 Addison Rd S,,Capitol Heights,MD,20743,,888-758-4389,T,2022/09/09 00:00:00+00,TEMPORARILY UNAVAILABLE (Public),24 hours daily,,,1,,,ChargePoint Network,http://www.chargepoint.com/,GPS,38.871576,-76.895604,2023/10/06 00:00:00+00,71959,2023/10/06 00:08:17,,,,2015/12/22 00:00:00+00,J1772,US,public,,,,,,,,False,336
-8515140.9925051,4764769.21790427,ELEC,Back River Treatment Plant,8201 Eastern Ave,,Baltimore,MD,21224,,410-685-1109,E,,Public,8am-5pm daily,,,4,,,Non-Networked,,200-8,39.300234,-76.492813,2022/11/10 00:00:00+00,72344,2023/02/14 15:54:11,P,,,2016/01/01 00:00:00+00,J1772,US,public,,,MUNI_GOV,Free,,False,LD,False,340
-8528107.59811219,4775000.69625753,ELEC,EVSP WALGREENS STORE 7573,6301 York Rd,,Baltimore,MD,21212,,888-758-4389,E,,Public,24 hours daily,,,1,,,ChargePoint Network,http://www.chargepoint.com/,GPS,39.371322,-76.609294,2023/10/06 00:00:00+00,72427,2023/10/06 00:07:21,,,,2016/01/09 00:00:00+00,J1772,US,public,,,,,,,,False,343
-8527036.03669381,4766512.01378147,ELEC,EVSP WALGREENS STORE 5408,1300 E North Ave,,Baltimore,MD,21213,,888-758-4389,E,,Public,24 hours daily,,,1,,,ChargePoint Network,http://www.chargepoint.com/,GPS,39.312348,-76.599668,2023/10/06 00:00:00+00,72428,2023/10/06 00:07:25,,,,2016/01/09 00:00:00+00,J1772,US,public,,,,,,,,False,345
-8541503.00639782,4766178.22070192,ELEC,TRANSPORTATION STATION3,6401 Security Blvd,,Baltimore,MD,21235,,888-758-4389,E,,Public,24 hours daily,,,2,,,ChargePoint Network,http://www.chargepoint.com/,GPS,39.310028,-76.729627,2023/10/06 00:00:00+00,72467,2023/10/06 00:10:59,,,,2016/01/09 00:00:00+00,J1772,US,public,,,,,,,,False,348
-8527541.5385015,4763106.98045824,ELEC,Carrollton Inn,50 Albermarle St,,Baltimore,MD,21202,,410-685-1109,E,,Public,8am-5pm daily,,,2,,,Non-Networked,,200-9,39.288678,-76.604209,2023/01/10 00:00:00+00,72526,2023/02/14 15:54:11,P,,,2016/01/01 00:00:00+00,J1772,US,public,,,B_AND_B,Free,,False,LD,False,351
-8513956.55312306,4724233.33942354,ELEC,JLR ANNAPOLIS DC FAST 01,101 Ferguson Rd,,Annapolis,MD,21409,,888-758-4389,E,,Public,24 hours daily,,,,1,,ChargePoint Network,http://www.chargepoint.com/,GPS,39.017882,-76.482173,2023/10/06 00:00:00+00,120990,2023/10/06 00:18:35,,,,2019/03/27 00:00:00+00,J1772COMBO,US,public,,,,,,,,False,352
-8574939.59656943,4705465.01425512,ELEC,OFFICE OF OP DC SOUTH BLD1,1351 C St NW,,Washington,DC,20024,,888-758-4389,E,,Public,24 hours daily,,,2,,,ChargePoint Network,http://www.chargepoint.com/,GPS,38.886768,-77.029993,2023/10/06 00:00:00+00,121677,2023/10/06 00:10:13,,,,2019/04/24 00:00:00+00,J1772,US,public,,,,,,,,False,355
-8567416.69217331,4613474.49840075,ELEC,The Boathouse Marina - Tesla Destination,829 Robin Grove Ln,,Colonial Beach,VA,22443,,804-224-7644  877-798-3752,E,,Public,,,,3,,,Tesla Destination,https://www.tesla.com/destination-charging,200-9,38.2406282,-76.9624136,2022/10/06 00:00:00+00,115938,2023/01/18 15:15:20,P,,,2018/07/06 00:00:00+00,J1772 TESLA,US,public,,,OTHER_ENTERTAINMENT,Free,,,,False,356
-8528118.28478331,4763466.41821546,ELEC,War Memorial Plaza,400 E Lexington St,,Baltimore,MD,21202,,855-443-3873,E,,Public,24 hours daily,,,2,,,Non-Networked,,GPS,39.291177,-76.60939,2021/10/12 00:00:00+00,72688,2023/09/20 19:18:28,LG,,,2013/10/01 00:00:00+00,J1772,US,public,,,PARKING_LOT,Free,,False,,False,358
-8587185.40847363,4725225.91522692,ELEC,Marriott International,10400 Fernwood Rd,,Bethesda,MD,20817,,,E,,Private,,,,2,,,Non-Networked,,GPS,39.0248093,-77.139999,2022/10/11 00:00:00+00,72718,2023/02/15 22:45:41,P,,,2016/01/25 00:00:00+00,J1772,US,private,,,OFFICE_BLDG,,,,LD,False,361
-8609291.45559434,4700728.3893334,ELEC,SpringHill Suites Fairfax Fair Oaks - Tesla Destination,11191 Waples Mill Rd,,Fairfax,VA,22030,,703-691-7880  877-798-3752,E,,Public,,,,2,,,Tesla Destination,https://www.tesla.com/destination-charging,200-9,38.85364,-77.338581,2022/10/06 00:00:00+00,115941,2023/01/18 15:15:20,P,,,2017/07/17 00:00:00+00,J1772 TESLA,US,public,,,HOTEL,Free,,,,False,365
-8575603.28337354,4624853.81681646,ELEC,Naval Facilities Engineering Command - Naval Support Facility Dahlgren - Building 101,6509 Sampson Rd,,Dahlgren,VA,22448,,,E,,Private,Fleet use only,,,2,,,Non-Networked,,GPS,38.320871,-77.035955,2021/02/22 00:00:00+00,122078,2021/03/11 23:22:17,FG,14,Department of Navy,2019/02/01 00:00:00+00,J1772,US,private,,DON,FED_GOV,,,,,False,366
-8521501.45425055,4720541.44646259,ELEC,OpenPath Products,2065 Generals Hwy,,Annapolis,MD,21401,,,E,,Private,,,,1,,,Non-Networked,,GPS,38.9921099,-76.54995,2021/09/10 00:00:00+00,73114,2023/02/15 22:45:41,P,,,2020/10/26 00:00:00+00,J1772,US,private,,,OFFICE_BLDG,,SOLAR,,LD,False,367
-8529443.09804324,4765892.34723717,ELEC,Fox and Bunting Building,1303 W Mount Royal Ave,,Baltimore,MD,21217,,410-685-1109,E,,Public,8am-5pm M-F,,,2,,,Non-Networked,,200-8,39.308041,-76.621291,2022/11/10 00:00:00+00,73224,2023/02/14 15:54:11,P,,,2016/01/23 00:00:00+00,J1772,US,public,,,OFFICE_BLDG,Free,,False,LD,False,369
-8574972.76977769,4625261.0477613,ELEC,Naval Facilities Engineering Command - Naval Support Facility Dahlgren - Building 182,6509 Sampson Rd,,Dahlgren,VA,22448,,,E,,Private,Fleet use only,,,2,,,Non-Networked,,GPS,38.323741,-77.030291,2021/02/22 00:00:00+00,122079,2021/03/11 23:22:17,FG,14,Department of Navy,2019/02/01 00:00:00+00,J1772,US,private,,DON,FED_GOV,,,,,False,370
-8573680.46180907,4699214.41597676,ELEC,JB Anacostia-Bolling,118 Brookley Ave,,Washington,DC,20032,,,E,,Private - Government only,Drivers must bring their own J1772 cordset for Level 1 charging,,3,,,,Non-Networked,,GPS,38.843048,-77.018682,2021/02/22 00:00:00+00,122103,2022/02/10 21:00:18,FG,14,Department of Navy,2019/02/01 00:00:00+00,NEMA515,US,private,GOVERNMENT,DON,FED_GOV,,,,,False,373
-8573680.46180907,4699214.41597676,ELEC,JB Anacostia-Bolling,118 Brookley Ave,,Washington,DC,20032,,,E,,Private - Government only,,,,16,,,Non-Networked,,GPS,38.843048,-77.018682,2021/02/22 00:00:00+00,122104,2021/03/11 23:22:17,FG,14,Department of Navy,2019/02/01 00:00:00+00,J1772,US,private,GOVERNMENT,DON,FED_GOV,,,,,False,376
-8528907.53997303,4764052.99525195,ELEC,Hotel Indigo,24 W Franklin St,,Baltimore,MD,21201,,410-685-1109,E,,Public,8am-5pm daily,,,4,,,Non-Networked,,200-9,39.295255,-76.61648,2022/11/10 00:00:00+00,73608,2023/09/05 20:10:57,P,,,2016/02/11 00:00:00+00,J1772,US,public,,,HOTEL,Free,,False,LD,False,378
-8570751.5346868,4703682.08675161,ELEC,Naval Facilities Engineering Command - Washington Navy Yard - Building 386,601 M St SE,,Washington,DC,20003,,,E,,Private,"Fleet use only; Drivers must bring their own J1772 cordset for Level 1 charging",,2,2,,,Non-Networked,,GPS,38.8743,-76.992371,2021/02/22 00:00:00+00,122105,2022/02/10 21:00:18,FG,14,Department of Navy,2019/02/01 00:00:00+00,J1772 NEMA520,US,private,,DON,FED_GOV,,,,,False,379
-8525770.66804196,4769999.66241021,ELEC,Montebello Filtration Plant,3901 Hillen Rd,,Baltimore,MD,21218,,410-685-1109,E,,Public,8am-5pm daily,,,4,,,Non-Networked,,200-8,39.336584,-76.588301,2022/11/10 00:00:00+00,74037,2023/02/14 15:54:11,P,,,2016/02/26 00:00:00+00,J1772,US,public,,,MUNI_GOV,Free,,False,LD,False,381
-8508621.34388781,4619327.14430051,ELEC,Naval Facilities Engineering Command - Naval Support Activity Patuxent River - Building 504,22268 Cedar Point Rd,,Patuxent River,MD,20670,,,E,,Private,Fleet use only,,,4,,,Non-Networked,,GPS,38.28191,-76.434246,2021/02/22 00:00:00+00,122166,2021/03/11 23:22:17,FG,14,Department of Navy,2019/02/01 00:00:00+00,J1772,US,private,,DON,FED_GOV,,,,,False,383
-8577457.08685372,4701108.77626884,ELEC,JBG SMITH 1919 S EADS,1919 S Eads St,,Arlington,VA,22202,,888-758-4389,E,,Public,24 hours daily,,,2,,,ChargePoint Network,http://www.chargepoint.com/,GPS,38.856301,-77.052608,2023/10/06 00:00:00+00,74203,2023/10/06 00:09:33,,,,2016/03/15 00:00:00+00,J1772,US,public,,,,,,,,False,384
-8515652.61688478,4719943.79860305,ELEC,Naval Facilities Engineering Command - Naval Support Activity Annapolis - Building 187,58 Bennion Rd,,Annapolis,MD,21402,,,E,,Private,"Fleet use only; Drivers must bring their own J1772 cordset for Level 1 charging",,10,2,,,Non-Networked,,GPS,38.987937,-76.497409,2021/02/22 00:00:00+00,122167,2022/02/10 21:00:18,FG,14,Department of Navy,2019/02/01 00:00:00+00,J1772 NEMA520,US,private,,DON,FED_GOV,,,,,False,387
-8591207.60431498,4664123.25446408,ELEC,Naval Facilities Engineering Command - Naval Support Facility Indian Head - 551,3838 Strauss Ave,,Indian Head,MD,2064,,,E,,Private,Fleet use only,,,2,,,Non-Networked,,GPS,38.597103,-77.176131,2021/02/22 00:00:00+00,122168,2021/03/11 23:22:17,FG,14,Department of Navy,2019/02/01 00:00:00+00,J1772,US,private,,DON,FED_GOV,,,,,False,390
-8591107.86205122,4663125.41135148,ELEC,Naval Facilities Engineering Command - Naval Support Facility Indian Head - D323,3838 Strauss Ave,,Indian Head,MD,2064,,,E,,Private,Fleet use only,,,2,,,Non-Networked,,GPS,38.590097,-77.175235,2021/02/22 00:00:00+00,122169,2021/03/11 23:22:17,FG,14,Department of Navy,2019/02/01 00:00:00+00,J1772,US,private,,DON,FED_GOV,,,,,False,393
-8558289.3176925,4712852.31069192,ELEC,Smithsonian Libraries - Research Annex,3400 Pennsy Dr,,Landover,MD,20785,,410-685-1109,E,,Public,24 hours daily,,,8,,,Non-Networked,,200-9,38.938404,-76.880421,2022/11/10 00:00:00+00,122189,2023/02/14 15:54:11,P,,,2019/04/30 00:00:00+00,J1772,US,public,,,LIBRARY,Free,,False,LD,False,394
-8564626.73630336,4752076.21911992,ELEC,CLARKSVILLE COMMONS 1,12236-12242 MD-108,,Clarksville,MD,21029,,888-758-4389,E,,Public,24 hours daily,,,2,,,ChargePoint Network,http://www.chargepoint.com/,GPS,39.211943,-76.937351,2023/10/06 00:00:00+00,122219,2023/10/06 00:09:05,,,,2019/05/01 00:00:00+00,J1772,US,public,,,,,,,,False,395
-8596211.30410664,4709715.95886419,ELEC,Tysons Corner - Tesla Destination,1961 Chain Bridge Rd,,McClean,VA,22102,,703-893-9400  877-798-3752,E,,Public,,,,8,,,Tesla Destination,https://www.tesla.com/destination-charging,200-8,38.916486,-77.22108,2022/10/06 00:00:00+00,122579,2023/01/18 15:15:20,P,,,2018/04/12 00:00:00+00,TESLA,US,public,,,,Free,,,,False,399
-8523491.62410695,4771062.48716427,ELEC,Zeke's Coffee,4719 Harford Rd,,Baltimore,MD,21214,,410-685-1109,E,,Public,24 hours daily,,,2,,,Non-Networked,,200-9,39.343968,-76.567828,2022/11/10 00:00:00+00,122750,2023/02/14 15:54:11,P,,,2019/05/07 00:00:00+00,J1772,US,public,,,RESTAURANT,Free,,False,LD,False,400
-8528896.51934344,4763366.30941209,ELEC,Central Plaza Garage,100 W Fayette St,,Baltimore,MD,21201,,410-685-1109,E,,Public,24 hours daily,,,4,,,Non-Networked,,200-9,39.290481,-76.616381,2022/11/10 00:00:00+00,122751,2023/02/14 15:54:11,P,,,2019/05/07 00:00:00+00,J1772,US,public,,,PARKING_GARAGE,Free,,False,LD,False,401
-8576271.08899881,4707883.21993964,ELEC,1801 K Street NW,1801 K Street NW,,Washington,DC,20006,,866-816-7584,E,,Public,,,,2,,,EV Connect,http://evconnect.com/,GPS,38.903675,-77.041954,2023/10/06 00:00:00+00,123243,2023/10/06 00:58:20,,,,2019/04/01 00:00:00+00,J1772,US,public,,,,,,,,False,403
-8559838.88500434,4723045.49416436,ELEC,Morning Calm Management,6406 Ivy Ln,,Greenbelt,MD,20770,,,E,,Private,For employee use only,,,2,,,Non-Networked,,200-9,39.009591,-76.894341,2022/01/10 00:00:00+00,123299,2023/02/15 22:45:41,P,,,2018/09/01 00:00:00+00,J1772,US,private,,,OFFICE_BLDG,,,,LD,True,404
-8549025.86626613,4739487.70473788,ELEC,Verizon - Annapolis,10170 Junction Dr,,Annapolis Junction,MD,20701,,,E,,Private,For employee use only,,,4,,,Non-Networked,,200-8,39.124269,-76.797206,2023/04/06 00:00:00+00,123308,2023/04/06 17:17:01,P,,,2019/05/01 00:00:00+00,J1772,US,private,,,OFFICE_BLDG,,,,LD,True,405
-8624054.31250487,4723277.29285666,ELEC,Verizon - Ashburn,22001 Loudoun County Pkwy,,Ashburn,VA,20147,,,E,,Private,For employee use only,,,12,,,Non-Networked,,200-9,39.011209,-77.471198,2023/04/06 00:00:00+00,123324,2023/04/06 17:17:01,P,,,2019/05/01 00:00:00+00,J1772,US,private,,,OFFICE_BLDG,,,,LD,True,407
-8541536.06828658,4748353.62602533,ELEC,Verizon - Hanover,7401 Coca Cola Dr,,Hanover,MD,21076,,,E,,Private,For employee use only,,,4,,,Non-Networked,,200-9,39.186028,-76.729924,2023/04/06 00:00:00+00,123354,2023/04/06 17:17:01,P,,,2019/05/01 00:00:00+00,J1772,US,private,,,OFFICE_BLDG,,,,LD,True,409
-8570760.66288505,4709723.6847928,ELEC,Verizon - Washington,935 V St NE,,Washington,DC,20018,,,E,,Private,For employee use only,,,3,,,Non-Networked,,200-9,38.91654,-76.992453,2023/04/06 00:00:00+00,123359,2023/04/06 17:17:01,P,,,2019/05/01 00:00:00+00,J1772,US,private,,,OFFICE_BLDG,,,,LD,True,410
-8554564.56753055,4751914.30120769,ELEC,COLUMBIA ASSOC ROBERT OLIVER 1,5851 Robert Oliver Pl,,Columbia,MD,21045,,888-758-4389,E,,Public,24 hours daily,,,1,,,ChargePoint Network,http://www.chargepoint.com/,GPS,39.210816,-76.846961,2023/10/06 00:00:00+00,123585,2023/10/06 00:20:58,,,,2019/06/07 00:00:00+00,J1772,US,public,,,,,,,,False,413
-8528500.55591469,4762179.60686095,ELEC,Maryland Science Center,601 Light St,,Baltimore,MD,21230,,410-685-1109,E,,Public,24 hours daily,,,2,,,Non-Networked,,200-9,39.28223,-76.612824,2022/11/10 00:00:00+00,123641,2023/02/14 15:54:11,P,,,2019/06/07 00:00:00+00,J1772,US,public,,,MUSEUM,Free,,False,LD,False,414
-8529417.60587984,4767681.24009839,ELEC,Johns Hopkins Community Physicians - Remington,2700 Remington Ave,,Baltimore,MD,21211,,410-685-1109,E,,Public,24 hours daily,,,2,,,Non-Networked,,200-9,39.320474,-76.621062,2022/11/10 00:00:00+00,123642,2023/02/14 15:54:11,P,,,2019/06/07 00:00:00+00,J1772,US,public,,,HOSPITAL,Free,,False,LD,False,415
-8529256.41525717,4767557.34689981,ELEC,Miller's Court,2601 N Howard St,,Baltimore,MD,21218,,,E,,Private,,,,2,,,Non-Networked,,200-9,39.319613,-76.619614,2022/01/10 00:00:00+00,123643,2023/02/15 22:45:41,P,,,2019/06/07 00:00:00+00,J1772,US,private,,,PARKING_LOT,,,,LD,False,416
-8526989.39382717,4760183.7707997,ELEC,McHenry Row - Parking Garage,1641 Whetstone Way,,Baltimore,MD,21230,,410-685-1109,E,,Public,24 hours daily,,,3,,,Non-Networked,,200-9,39.268351,-76.599249,2022/11/10 00:00:00+00,123644,2023/02/14 15:54:11,P,,,2019/06/07 00:00:00+00,J1772,US,public,,,PARKING_GARAGE,Free,,False,LD,False,417
-8557601.58587838,4746950.84545853,ELEC,Shimadzu Scientific Instruments,7102 Riverwood Dr,,Columbia,MD,21046,,,E,,Private,,,,2,,,Non-Networked,,200-9,39.17626,-76.874243,2022/01/10 00:00:00+00,135484,2023/02/15 22:45:41,P,,,2019/07/01 00:00:00+00,J1772,US,private,,,OFFICE_BLDG,Free,,,,True,418
-8583680.18034753,4704551.91837876,ELEC,Two Liberty Center - Tesla Destination,4075 Wilson Blvd,,Arlington,VA,22203,,703-527-8600  877-798-3752,E,,Public,,,,6,,,Tesla Destination,https://www.tesla.com/destination-charging,GPS,38.880383,-77.108511,2022/10/06 00:00:00+00,137148,2023/01/18 15:15:20,P,,,2019/05/13 00:00:00+00,J1772 TESLA,US,public,,,PARKING_GARAGE,Free,,,,False,421
-8574450.68136586,4707795.10344508,ELEC,901 K Street NW - Tesla Destination,901 K St NW,,Washington,DC,20036,,202-350-6625  877-798-3752,E,,Public,,,,2,,,Tesla Destination,https://www.tesla.com/destination-charging,GPS,38.903059,-77.025601,2022/10/06 00:00:00+00,137150,2023/01/18 15:15:20,P,,,2019/04/04 00:00:00+00,TESLA,US,public,,,PARKING_GARAGE,Free,,,,False,422
-8564608.0346289,4717285.18027702,ELEC,Whole Foods Market,6621-B Baltimore Ave,,Riverdale,MD,20737,,240-487-7575,E,,Public,24 hours daily,,,2,,,Non-Networked,,GPS,38.969371,-76.937183,2023/09/14 00:00:00+00,137154,2023/09/14 14:01:49,P,,,2019/07/19 00:00:00+00,J1772,US,public,,,GROCERY,Free,,False,LD,False,423
-8630116.54933449,4734775.46282477,ELEC,Village at Leesburg,1503 Dodona Terrace SE,,Leesburg,VA,20175,,571-291-2288,E,,Public - Call ahead,"8am-5pm M-F employee use only; available to the public all other times",,,4,,,Non-Networked,,GPS,39.091422,-77.525656,2023/01/10 00:00:00+00,137155,2023/02/14 15:54:11,P,,,2019/07/19 00:00:00+00,J1772,US,public,CALL,,PARKING_GARAGE,Free,,True,LD,True,424
-8577150.53523997,4708254.905444,ELEC,1255 23rd St NW - Tesla Destination,1255 23rd St NW,,Washington,DC,20037,,202-223-1537  877-798-3752,E,,Public,,,,4,,,Tesla Destination,https://www.tesla.com/destination-charging,GPS,38.9062733,-77.0498542,2022/10/06 00:00:00+00,137167,2023/01/18 15:15:20,P,,,2019/04/05 00:00:00+00,J1772 TESLA,US,public,,,PARKING_GARAGE,Free,,,,False,425
-8575773.15691649,4707968.7623329,ELEC,The Hub - Tesla Destination,1615 L St NW,,Washington,DC,20036,,202-349-4068  877-798-3752,E,,Public,,,,2,,,Tesla Destination,https://www.tesla.com/destination-charging,GPS,38.904273,-77.037481,2022/10/06 00:00:00+00,137168,2023/01/18 15:15:20,P,,,2019/04/25 00:00:00+00,J1772 TESLA,US,public,,,PARKING_GARAGE,Free,,,,False,426
-8578235.43273334,4693789.57560115,ELEC,1701 Duke Street - Tesla Destination,1701 Duke St,,Alexandria,VA,22314,,202-350-6625  877-798-3752,E,,Public,,,,3,,,Tesla Destination,https://www.tesla.com/destination-charging,GPS,38.805082,-77.0596,2022/10/06 00:00:00+00,137181,2023/01/18 15:15:20,P,,,2019/04/04 00:00:00+00,J1772 TESLA,US,public,,,PARKING_GARAGE,Free,,,,False,427
-8580979.09082708,4705750.21443991,ELEC,1320 N Courthouse Garage - Tesla Destination,1320 N Courthouse Rd,,Arlington,VA,22201,,561-833-7222  877-798-3752,E,,Public,,,,4,,,Tesla Destination,https://www.tesla.com/destination-charging,GPS,38.8887622,-77.0842467,2022/10/06 00:00:00+00,137182,2023/01/18 15:15:20,P,,,2019/04/12 00:00:00+00,J1772 TESLA,US,public,,,PARKING_GARAGE,Free,,,,False,428
-8582118.70185018,4705669.81068905,ELEC,Clarendon Square - Tesla Destination,3033 Wilson Blvd,,Arlington,VA,22201,,571-297-3631  877-798-3752,E,,Public,,,,4,,,Tesla Destination,https://www.tesla.com/destination-charging,GPS,38.8882,-77.094484,2022/10/06 00:00:00+00,137183,2023/01/18 15:15:20,P,,,2019/04/05 00:00:00+00,J1772 TESLA,US,public,,,PARKING_GARAGE,Free,,,,False,429
-8512687.17696954,4770558.40866472,ELEC,H-D BALTIMORE DCFAST HOG,8845 Pulaski Hwy,,Rosedale,MD,21237,,888-758-4389,E,,Public,24 hours daily,,,,1,,ChargePoint Network,http://www.chargepoint.com/,GPS,39.340466,-76.47077,2023/10/06 00:00:00+00,143222,2023/10/06 00:21:55,,,,2019/08/15 00:00:00+00,J1772COMBO,US,public,,,,,,,,False,431
-8577297.00942596,4728497.89298902,ELEC,MC FLEET WHEATON MCPL 1,11701 Georgia Ave,,Silver Spring,MD,20902,,888-758-4389,E,,Public,24 hours daily,,,2,,,ChargePoint Network,http://www.chargepoint.com/,GPS,39.04764,-77.05117,2023/10/06 00:00:00+00,143393,2023/10/06 00:21:30,,,,2019/08/15 00:00:00+00,J1772,US,public,,,,,,,,False,433
-8525734.37788797,4756178.47974457,ELEC,MDTA BALT HARB TUN 2,1150 Frankfurst Ave,,Baltimore,MD,21226,,888-758-4389,E,,Public,24 hours daily,,,,1,,ChargePoint Network,http://www.chargepoint.com/,GPS,39.24049,-76.587975,2023/10/06 00:00:00+00,143480,2023/10/06 00:21:08,,,,2019/08/15 00:00:00+00,CHADEMO J1772COMBO,US,public,,,,,,,,False,434
-8525719.34975671,4756182.36048821,ELEC,MDTA BALT HARB TUN 1,1150 Frankfurst Ave,,Baltimore,MD,21226,,888-758-4389,E,,Public,24 hours daily,,,,1,,ChargePoint Network,http://www.chargepoint.com/,GPS,39.240517,-76.58784,2023/10/06 00:00:00+00,143481,2023/10/06 00:21:08,,,,2019/08/15 00:00:00+00,CHADEMO J1772COMBO,US,public,,,,,,,,False,435
-8525755.52859122,4756177.90481971,ELEC,MDTA BALT HARB TUN 5,1150 Frankfurst Ave,,Baltimore,MD,21226,,888-758-4389,E,,Public,24 hours daily,,,,1,,ChargePoint Network,http://www.chargepoint.com/,GPS,39.240486,-76.588165,2023/10/06 00:00:00+00,143482,2023/10/06 00:21:08,,,,2019/08/15 00:00:00+00,CHADEMO J1772COMBO,US,public,,,,,,,,False,436
-8593556.89084868,4735407.70846794,ELEC,ARE MD 24 1 2,9800 Medical Center Dr,,Rockville,MD,20850,,888-758-4389,E,,Public,24 hours daily,,,2,,,ChargePoint Network,http://www.chargepoint.com/,GPS,39.09583,-77.197235,2023/10/06 00:00:00+00,143490,2023/10/06 00:27:03,,,,2019/08/15 00:00:00+00,J1772,US,public,,,,,,,,False,437
-8548023.43425154,4656154.61966826,ELEC,ALL AMERICAN HD DCFAST HOG,8126 Old Leonardtown Rd,,Hughesville,MD,20637,,888-758-4389,E,,Public,24 hours daily,,,,1,,ChargePoint Network,http://www.chargepoint.com/,GPS,38.541135,-76.788201,2023/10/06 00:00:00+00,143517,2023/10/06 00:20:58,,,,2019/08/15 00:00:00+00,J1772COMBO,US,public,,,,,,,,False,438
-8597133.92004634,4710511.47422879,ELEC,POA STATION 4,8251 Greensboro Dr,,McLean,VA,22102,,888-758-4389,E,,Public,24 hours daily,,,2,,,ChargePoint Network,http://www.chargepoint.com/,GPS,38.922046,-77.229368,2023/10/06 00:00:00+00,143626,2023/10/06 00:16:37,,,,2019/08/15 00:00:00+00,J1772,US,public,,,,,,,,False,439
-8526235.7608745,4760935.66809462,ELEC,UNDER ARMOUR 1100 HAUBERT ST,1100 Haubert St,,Baltimore,MD,21230,,888-758-4389,E,,Public,24 hours daily,,,2,,,ChargePoint Network,http://www.chargepoint.com/,GPS,39.27358,-76.592479,2023/10/06 00:00:00+00,143647,2023/10/06 00:15:08,,,,2019/08/15 00:00:00+00,J1772,US,public,,,,,,,,False,440
-8526147.59583779,4761138.28302492,ELEC,UNDER ARMOUR DAWN ALLEY,1000 Hull St,,Baltimore,MD,21230,,888-758-4389,E,,Public,24 hours daily,,,2,,,ChargePoint Network,http://www.chargepoint.com/,GPS,39.274989,-76.591687,2023/10/06 00:00:00+00,143651,2023/10/06 00:15:08,,,,2019/08/15 00:00:00+00,J1772,US,public,,,,,,,,False,441
-8606465.16504259,4713685.42842456,ELEC,PARKRIDGE 1 STATION 1,10700 Parkridge Blvd,,Reston,VA,20191,,888-758-4389,E,,Public,24 hours daily,,,2,,,ChargePoint Network,http://www.chargepoint.com/,GPS,38.944225,-77.313192,2023/10/06 00:00:00+00,143655,2023/10/06 00:14:16,,,,2019/08/15 00:00:00+00,J1772,US,public,,,,,,,,False,442
-8572585.96857559,4692312.76982819,ELEC,MGM RESORTS INT NAT HARBOR L6S2,101 MGM National Ave,,Oxon Hill,MD,20745,,888-758-4389,E,,Public,24 hours daily,,,2,,,ChargePoint Network,http://www.chargepoint.com/,GPS,38.794743,-77.00885,2023/10/06 00:00:00+00,143662,2023/10/06 00:13:17,,,,2019/08/15 00:00:00+00,J1772,US,public,,,,,,,,False,443
-8527941.17547345,4758995.43021785,ELEC,UNDER ARMOUR MAIN LOT,2601 Port Covington Dr,,Baltimore,MD,21230,,888-758-4389,T,2022/09/09 00:00:00+00,TEMPORARILY UNAVAILABLE (Public),24 hours daily,,,1,,,ChargePoint Network,http://www.chargepoint.com/,GPS,39.260086,-76.607799,2023/10/06 00:00:00+00,143673,2023/10/06 00:11:01,,,,2019/08/15 00:00:00+00,J1772,US,public,,,,,,,,False,444
-8626486.86601769,4722459.00125369,ELEC,LOUDOUN METRO STATION 12,43625 Croson lane,,Ashburn,VA,20147,,888-758-4389,E,,Public,24 hours daily,,,2,,,ChargePoint Network,http://www.chargepoint.com/,GPS,39.005497,-77.49305,2023/10/06 00:00:00+00,144038,2023/10/06 00:21:43,,,,2019/08/24 00:00:00+00,J1772,US,public,,,,,,,,False,445
-8626438.44203919,4722406.4277043,ELEC,LOUDOUN METRO STATION ONE,43625 Croson Lane,,Ashburn,VA,20148,,888-758-4389,E,,Public,24 hours daily,,,2,,,ChargePoint Network,http://www.chargepoint.com/,GPS,39.00513,-77.492615,2023/10/06 00:00:00+00,144045,2023/10/06 00:21:07,,,,2019/08/24 00:00:00+00,J1772,US,public,,,,,,,,False,446
-8626475.73406861,4722452.98464839,ELEC,LOUDOUN METRO STATION 13,43625 Croson lame,,Ashburn,VA,20147,,888-758-4389,E,,Public,24 hours daily,,,2,,,ChargePoint Network,http://www.chargepoint.com/,GPS,39.005455,-77.49295,2023/10/06 00:00:00+00,144050,2023/10/06 00:16:10,,,,2019/08/24 00:00:00+00,J1772,US,public,,,,,,,,False,447
-8626472.95108134,4722469.45869522,ELEC,LOUDOUN METRO STATION 5,43625 Croson Lane,,Ashburn,VA,20147,,888-758-4389,E,,Public,24 hours daily,,,2,,,ChargePoint Network,http://www.chargepoint.com/,GPS,39.00557,-77.492925,2023/10/06 00:00:00+00,144051,2023/10/06 00:11:21,,,,2019/08/24 00:00:00+00,J1772,US,public,,,,,,,,False,448
-8528110.71505793,4762841.905128,ELEC,Inner Harbor Center Garage,400 E Pratt St,,Baltimore,MD,21202,,410-585-4966,E,,Public,24 hours daily,,,4,,,Non-Networked,,200-9,39.286835,-76.609322,2022/11/10 00:00:00+00,145072,2023/02/14 15:54:11,P,,,2019/09/09 00:00:00+00,J1772,US,public,,,PAY_GARAGE,Free,,False,LD,False,449
-8565977.15304617,4719418.20581733,ELEC,UDR DOMAIN COLLEGE1,3711 Campus Dr,,College Park,MD,20740,,888-758-4389,E,,Public,24 hours daily,,,2,,,ChargePoint Network,http://www.chargepoint.com/,GPS,38.984267,-76.949482,2023/10/06 00:00:00+00,145082,2023/10/06 00:22:41,,,,2019/09/10 00:00:00+00,J1772,US,public,,,,,,,,False,450
-8605695.94736121,4698058.50498921,ELEC,GEORGE MASON U RAPPAHANNOCK 3,4395 University Dr,,Fairfax,VA,22030,,888-758-4389,E,,Public,24 hours daily,,,2,,,ChargePoint Network,http://www.chargepoint.com/,GPS,38.83496,-77.306282,2023/10/06 00:00:00+00,145215,2023/10/06 00:22:45,,,,2019/09/14 00:00:00+00,J1772,US,public,,,,,,,,False,451
-8606041.48306063,4697385.5703339,ELEC,GEORGE MASON U MASON POND 3,4500 Aquia Creek Ln,,Fairfax,VA,22030,,888-758-4389,T,2023/10/03 00:00:00+00,TEMPORARILY UNAVAILABLE (Public),24 hours daily,,,2,,,ChargePoint Network,http://www.chargepoint.com/,GPS,38.830251,-77.309386,2023/10/06 00:00:00+00,145217,2023/10/06 00:22:45,,,,2019/09/14 00:00:00+00,J1772,US,public,,,,,,,,False,452
-8605523.51346997,4697331.12587926,ELEC,GEORGE MASON U SHENANDOAH 3,10433 Sandy Creek Way,,Fairfax,VA,22030,,888-758-4389,E,,Public,24 hours daily,,,2,,,ChargePoint Network,http://www.chargepoint.com/,GPS,38.82987,-77.304733,2023/10/06 00:00:00+00,145316,2023/10/06 00:22:48,,,,2019/09/17 00:00:00+00,J1772,US,public,,,,,,,,False,453
-8522858.43884332,4759782.46552689,ELEC,MDTA FORT MCHENRY 4,3990 Leland Ave,,Baltimore,MD,21224,,888-758-4389,E,,Public,24 hours daily,,,,1,,ChargePoint Network,http://www.chargepoint.com/,GPS,39.26556,-76.56214,2023/10/06 00:00:00+00,145317,2023/10/06 00:22:45,,,,2019/09/17 00:00:00+00,CHADEMO J1772COMBO,US,public,,,,,,,,False,454
-8572246.55544816,4718514.59362992,ELEC,Pepco - BY Morrison Park,7301 Carroll Avenue,,Takoma Park,MD,20912,,855-900-7584,E,,Public,24 hours daily,,,2,,,SHELL_RECHARGE,https://shellrecharge.com/en-us/solutions,200-8,38.977957,-77.005801,2023/10/06 00:00:00+00,146938,2023/10/06 00:53:29,,,,2019/10/12 00:00:00+00,J1772,US,public,,,,,,,,False,455
-8516519.90703755,4716422.56072259,ELEC,BGE-Pip Moyer Rec Center,273 Hilltop Ln,,Annapolis,MD,21403,,855-900-7584,E,,Public,24 hours daily,,,2,,,SHELL_RECHARGE,https://shellrecharge.com/en-us/solutions,200-8,38.963346,-76.5052,2023/10/06 00:00:00+00,146940,2023/10/06 00:53:29,,,,2019/10/12 00:00:00+00,J1772,US,public,,,,,,,,False,456
-8549515.89466461,4746458.16647014,ELEC,ORACLE MD COLUMBIA,7031 Columbia Gateway Dr,,Columbia,MD,21046,,888-758-4389,E,,Public,24 hours daily,,,2,,,ChargePoint Network,http://www.chargepoint.com/,GPS,39.172829,-76.801608,2023/10/06 00:00:00+00,147022,2023/10/06 00:22:11,,,,2019/10/17 00:00:00+00,J1772,US,public,,,,,,,,False,457
-8558298.22325176,4752134.26308588,ELEC,Howard Community College,5051 Campus Dr,,Columbia,MD,21044,,,E,,Private,7am-11pm daily,,,3,,,Non-Networked,,200-8,39.212347,-76.880501,2022/09/14 00:00:00+00,147032,2023/02/15 22:45:41,LG,,,2018/03/01 00:00:00+00,J1772,US,private,,,COLLEGE_CAMPUS,Free,,,LD,True,458
-8587483.85602845,4702688.37056602,ELEC,"Target 1431 - Falls Church, VA",6100 Arlington Blvd,,Falls Church,VA,22044,,833-632-2778,E,,Public,24 hours daily,,,,6,,Electrify America,https://www.electrifyamerica.com/,GPS,38.86735,-77.14268,2023/10/06 00:00:00+00,147079,2023/10/06 00:56:16,,,,2019/10/19 00:00:00+00,CHADEMO J1772COMBO,US,public,,,,,,,,False,460
-8532620.04499098,4775785.2397223,ELEC,MTA LTR FALLS RD,2 Railroad Ave,,Baltimore,MD,21209,,888-758-4389,T,2023/09/30 00:00:00+00,TEMPORARILY UNAVAILABLE (Public),24 hours daily,,,2,,,ChargePoint Network,http://www.chargepoint.com/,GPS,39.37677,-76.64983,2023/10/06 00:00:00+00,147495,2023/10/06 00:24:04,,,,2019/11/05 00:00:00+00,J1772,US,public,,,,,,,,False,463
-8582022.41049064,4719561.70283287,ELEC,7501 CHARGING STATION 250,7501 Wisconsin Ave,,Bethesda,MD,20814,,888-758-4389,E,,Public,24 hours daily,,,1,,,ChargePoint Network,http://www.chargepoint.com/,GPS,38.985269,-77.093619,2023/10/06 00:00:00+00,147590,2023/10/06 00:23:53,,,,2019/11/08 00:00:00+00,J1772,US,public,,,,,,,,False,464
-8532326.94077173,4767427.26787707,ELEC,Conservatory and Botanic Gardens,3100 Swann Dr,,Baltimore,MD,21217,,410-685-1109,E,,Public,24 hours daily,,,,1,,Non-Networked,,GPS,39.318709,-76.647197,2023/01/10 00:00:00+00,74345,2023/09/14 20:25:01,P,,,2016/03/22 00:00:00+00,CHADEMO J1772COMBO,US,public,,,PARK,Free,,False,LD,False,467
-8624586.08571239,4733624.95746492,ELEC,Lansdowne Resort - Tesla Destination,44050 Woodridge Pkwy,,Leesburg,VA,20176,,703-729-8400  877-798-3752,E,,Public,,,,4,,,Tesla Destination,https://www.tesla.com/destination-charging,200-9,39.0834,-77.475975,2022/10/06 00:00:00+00,115953,2023/01/18 15:15:20,P,,,2016/06/15 00:00:00+00,J1772 TESLA,US,public,,,HOTEL,Free,,,,False,468
-8524406.55900178,4763098.78214761,ELEC,Patterson Park,200 S Linwood Ave,,Baltimore,MD,21224,,410-685-1109,E,,Public,24 hours daily,,,,1,,Non-Networked,,GPS,39.288621,-76.576047,2022/11/10 00:00:00+00,74346,2023/09/14 20:07:26,P,,,2016/03/14 00:00:00+00,CHADEMO J1772COMBO,US,public,,,PARK,Free,,False,LD,False,469
-8632376.3572615,4736938.14177438,ELEC,Best Western Leesburg Hotel & Conference Center - Tesla Destination,726 E Market St,,Leesburg,VA,20176,,703-777-9400  877-798-3752,E,,Public,,,,4,,,Tesla Destination,https://www.tesla.com/destination-charging,200-9,39.106499,-77.5459562,2022/10/06 00:00:00+00,115954,2023/01/18 15:15:20,P,,,2017/10/19 00:00:00+00,J1772 TESLA,US,public,,,HOTEL,Free,,,,False,470
-8527780.54144824,4763817.66990467,ELEC,Maryland Center for Veterans Education and Training,301 N High St,,Baltimore,MD,21202,,410-685-1109,E,,Public,24 hours daily,,,4,,,Non-Networked,,200-9,39.293619,-76.606356,2022/11/10 00:00:00+00,74347,2023/02/14 15:54:11,P,,,2016/03/11 00:00:00+00,J1772,US,public,,,OFFICE_BLDG,Free,,False,LD,False,471
-8574446.6738642,4721282.82282283,ELEC,MCDOT-PARKING GARAGE 61,801 Ellsworth Dr,,Silver Spring,MD,20910,,888-758-4389,E,,Public,24 hours daily,,,2,,,ChargePoint Network,http://www.chargepoint.com/,GPS,38.997286,-77.025565,2023/10/06 00:00:00+00,74561,2023/10/06 00:09:24,,,,2016/03/31 00:00:00+00,J1772,US,public,,,,,,,,False,473
-8574782.85872639,4720760.45486314,ELEC,MCDOT-PARKING GARAGE 5,1101 Bonifant St,,Silver Spring,MD,20910,,888-758-4389,E,,Public,24 hours daily,,,2,,,ChargePoint Network,http://www.chargepoint.com/,GPS,38.993639,-77.028585,2023/10/06 00:00:00+00,74562,2023/10/06 00:09:24,,,,2016/03/31 00:00:00+00,J1772,US,public,,,,,,,,False,475
-8582726.95154787,4720174.09416385,ELEC,MCDOT-PARKING GARAGE 36,4910 Auburn Ave,,Bethesda,MD,20814,,888-758-4389,E,,Public,24 hours daily,,,2,,,ChargePoint Network,http://www.chargepoint.com/,GPS,38.989545,-77.099948,2023/10/06 00:00:00+00,74563,2023/10/06 00:09:24,,,,2016/03/31 00:00:00+00,J1772,US,public,,,,,,,,False,477
-8565537.66369652,4732945.07059278,ELEC,S SPRING BMW STATION 02,3211 Automobile Blvd,,Silver Spring,MD,20904,,888-758-4389,E,,Public,24 hours daily,,,2,,,ChargePoint Network,http://www.chargepoint.com/,GPS,39.078659,-76.945534,2023/10/06 00:00:00+00,74697,2023/10/06 00:09:21,,,,2016/04/02 00:00:00+00,J1772,US,public,,,,,,,,False,479
-8527453.15082581,4762551.38022298,ELEC,Baltimore Public Works Museum,751 Eastern Ave,,Baltimore,MD,21202,,410-685-1109,E,,Public,24 hours daily,,,2,,,Non-Networked,,200-9,39.284815,-76.603415,2023/01/10 00:00:00+00,74845,2023/02/14 15:54:11,P,,,2016/04/01 00:00:00+00,J1772,US,public,,,MUSEUM,Free,,False,LD,False,481
-8526885.64406175,4761989.77043592,ELEC,EXELON LOWERLEVELGRG4,1401 Dock St,,Baltimore,MD,21231,,888-758-4389,E,,Public,24 hours daily,,,2,,,ChargePoint Network,http://www.chargepoint.com/,GPS,39.28091,-76.598317,2023/10/06 00:00:00+00,75526,2023/10/06 00:09:01,,,,2016/05/04 00:00:00+00,J1772,US,public,,,,,,,,False,488
-8623394.85584141,4731839.07930998,ELEC,HHMI Janelia Research Campus,19700 Helix Dr,,Ashburn,VA,20147,,,E,,Private,Employee use only,,,4,,,Non-Networked,,200-9,39.070946,-77.465274,2022/12/13 00:00:00+00,75603,2023/02/15 22:45:41,P,,,2016/05/01 00:00:00+00,J1772,US,private,,,HOSPITAL,,,,,True,489
-8610494.48533135,4714759.52274177,ELEC,Whole Foods Market,11660 Plaza America Dr,,Reston,VA,20190,,703-736-0600,E,,Public,24 hours daily,,,2,,,Non-Networked,,200-9,38.951729,-77.349388,2021/10/12 00:00:00+00,75605,2022/02/10 19:42:29,P,,,2016/05/01 00:00:00+00,J1772,US,public,,,GROCERY,Free,,False,MD,False,490
-8620501.6622757,4723475.28580282,ELEC,BMW of Sterling,21710 Auto World Cir,,Sterling,VA,20166,,571-434-1944,T,2022/11/22 00:00:00+00,TEMPORARILY UNAVAILABLE (Public),"Dealership business hours; BMW customers only",,,1,,,Non-Networked,,200-8,39.012591,-77.439284,2022/01/10 00:00:00+00,75607,2022/02/10 19:42:29,P,,,2016/05/01 00:00:00+00,J1772,US,public,,,CAR_DEALER,,,False,,False,491
-8576060.58384172,4707754.33552041,ELEC,JBG SMITH 1717K,1717 K St NW,,Washington,DC,20006,,888-758-4389,E,,Public,24 hours daily,,,2,,,ChargePoint Network,http://www.chargepoint.com/,GPS,38.902774,-77.040063,2023/10/06 00:00:00+00,76344,2023/10/06 00:07:48,,,,2016/06/17 00:00:00+00,J1772,US,public,,,,,,,,False,499
-8575841.84104231,4707666.79231936,ELEC,JBG SMITH 1666K,1666 K St NW,,Washington,DC,20006,,888-758-4389,E,,Public,24 hours daily,,,2,,,ChargePoint Network,http://www.chargepoint.com/,GPS,38.902162,-77.038098,2023/10/06 00:00:00+00,76345,2023/10/06 00:07:47,,,,2016/06/17 00:00:00+00,J1772,US,public,,,,,,,,False,500
-8582380.63661201,4718996.74878087,ELEC,MCDOT-PARKING GARAGE57,4841 Bethesda Ave,,Bethesda,MD,20814,,888-758-4389,E,,Public,24 hours daily,,,2,,,ChargePoint Network,http://www.chargepoint.com/,GPS,38.981324,-77.096837,2023/10/06 00:00:00+00,99491,2023/10/06 00:14:15,,,,2018/06/28 00:00:00+00,J1772,US,public,,,,,,,,False,501
-8574210.23126575,4720856.70490163,ELEC,MCDOT-PARKING LOT29,876 Bonifant St,,Silver Spring,MD,20910,,888-758-4389,E,,Public,24 hours daily,,,2,,,ChargePoint Network,http://www.chargepoint.com/,GPS,38.994311,-77.023441,2023/10/06 00:00:00+00,99492,2023/10/06 00:14:15,,,,2018/06/28 00:00:00+00,J1772,US,public,,,,,,,,False,502
-8582421.49086513,4720538.88272738,ELEC,MCDOT-PARKING GARAGE 35,8120 Woodmont Ave,,Bethesda,MD,20814,,888-758-4389,E,,Public,24 hours daily,,,2,,,ChargePoint Network,http://www.chargepoint.com/,GPS,38.992092,-77.097204,2023/10/06 00:00:00+00,99493,2023/10/06 00:14:14,,,,2018/06/28 00:00:00+00,J1772,US,public,,,,,,,,False,503
-8592259.46218348,4689697.21107198,ELEC,Leckner Nissan - Springfield,6570 Amherst Ave,,Springfield,VA,22150,,703-451-1970,E,,Public,Dealership business hours,,,1,,,Non-Networked,,200-9,38.776428,-77.18558,2020/06/09 00:00:00+00,99506,2023/02/15 22:45:41,P,,,2018/06/28 00:00:00+00,J1772,US,public,,,CAR_DEALER,Free,,False,,False,504
-8592259.46218348,4689697.21107198,ELEC,Leckner Nissan - Springfield,6570 Amherst Ave,,Springfield,VA,22150,,703-451-1970,E,,Private,,,,1,,,Non-Networked,,200-9,38.776428,-77.18558,2020/06/09 00:00:00+00,99507,2023/02/15 22:45:41,P,,,2018/06/28 00:00:00+00,J1772,US,private,,,CAR_DEALER,,,,,False,505
-8560502.46048896,4664733.17455689,ELEC,CHARLES COUNTY P D BROWN 1,50 Village St,,Saint Charles,MD,20602,,888-758-4389,E,,Public,24 hours daily,,,2,,,ChargePoint Network,http://www.chargepoint.com/,GPS,38.601385,-76.900302,2023/10/06 00:00:00+00,99568,2023/10/06 00:16:56,,,,2018/07/03 00:00:00+00,J1772,US,public,,,,,,,,False,506
-8529086.31907524,4760105.83781947,ELEC,Baltimore Gas & Electric - Spring Gardens,1899 Leadenhall St,,Baltimore,MD,21230,,,E,,Private,,,,4,,,Non-Networked,,200-8,39.267809,-76.618086,2022/01/10 00:00:00+00,99667,2023/09/25 14:19:15,T,,,2018/07/01 00:00:00+00,J1772,US,private,,,UTILITY,,,,LD,True,507
-8544286.77290408,4769584.5809518,ELEC,Baltimore Gas & Electric - Fleet Building,7210 Windsor Blvd,,Baltimore,MD,21244,,,E,,Private,,,,4,,,Blink Network,http://www.blinkcharging.com/,200-9,39.3337,-76.754634,2022/01/10 00:00:00+00,99668,2023/09/25 14:19:15,T,,,2019/04/01 00:00:00+00,J1772,US,private,,,UTILITY,,,,LD,True,508
-8576364.04077362,4707504.72495341,ELEC,World Bank,1850 I St NW,,Washington,DC,20006,,,E,,Private,Employee use only,,,2,,,EV Connect,http://evconnect.com/,200-9,38.901029,-77.042789,2020/04/08 00:00:00+00,99693,2021/03/11 23:22:17,P,,,2015/06/12 00:00:00+00,J1772,US,private,,,OFFICE_BLDG,,,,,True,509
-8550619.96137429,4745965.3679339,ELEC,Columbia Gateway - Medical Center,7070 Samuel Morse Dr,,Columbia,MD,21046,,410-685-1109,E,,Public,24 hours daily,,,4,,,Non-Networked,,200-9,39.169397,-76.811526,2022/11/10 00:00:00+00,99951,2023/02/14 15:54:11,P,,,2018/07/23 00:00:00+00,J1772,US,public,,,HOSPITAL,Free,,False,LD,False,511
-8561176.6113252,4710937.73014164,ELEC,Cheverly Town Park,6401 Forest Rd,,Cheverly,MD,20785,,410-685-1109,E,,Public,24 hours daily,,,3,,,Non-Networked,,200-9,38.925025,-76.906358,2022/11/10 00:00:00+00,99960,2023/02/14 15:54:11,P,,,2018/07/25 00:00:00+00,J1772,US,public,,,PARK,Free,,False,LD,False,512
-8539214.27766711,4734949.29775111,ELEC,NOVUS ODENTON NEW STATION 1,317 Nevada Ave,,Odenton,MD,21113,,888-758-4389,E,,Public,24 hours daily,,,2,,,ChargePoint Network,http://www.chargepoint.com/,GPS,39.092634,-76.709067,2023/10/06 00:00:00+00,100283,2023/10/06 00:16:24,,,,2018/08/09 00:00:00+00,J1772,US,public,,,,,,,,False,513
-8550643.00450889,4745873.76060046,ELEC,Laureate Education Inc,7065 Samuel Morse Dr,,Columbia,MD,21046,,410-685-1109,E,,Public,24 hours daily,,,4,,,Non-Networked,,200-8,39.168759,-76.811733,2022/11/10 00:00:00+00,100325,2023/02/14 15:54:11,P,,,2018/08/08 00:00:00+00,J1772,US,public,,,COLLEGE_CAMPUS,Free,,False,LD,False,514
